{"type":"FeatureCollection", "features": [
{"type":"Feature","geometry":{"type":"Point","coordinates":[-122.17124171203612,47.73086324709881]},"properties":{"OBJECTID":1,"FEATURE_ID":660080,"ESITE":"21178","CODE":66,"NAME":"Station 34","ABB_NAME":"34","ADDRESS":"12703 NE 144th St","ZIPCODE":"98072","DISTRICT":"36","NEWSTA":"E","RESOLUTION":"added cit, zip/moved to current location/QC'd","WEBSITE":"http://www.wflsd.org/stations/34.htm","PIN":"2126059205","MAJOR":"212605","MINOR":"9205"}},
{"type":"Feature","geometry":{"type":"Point","coordinates":[-122.08032149710462,47.757889277082896]},"properties":{"OBJECTID":2,"FEATURE_ID":660081,"ESITE":"21179","CODE":66,"NAME":"Station 35","ABB_NAME":"35","ADDRESS":"17825 Avondale Rd NE","ZIPCODE":"98072","DISTRICT":"36","NEWSTA":"E","RESOLUTION":"added city, zip/moved to current location/QC'd","WEBSITE":"http://www.wflsd.org/stations/35.htm","PIN":"0726069092","MAJOR":"072606","MINOR":"9092"}},
{"type":"Feature","geometry":{"type":"Point","coordinates":[-121.92823927180407,47.28252676357092]},"properties":{"OBJECTID":3,"FEATURE_ID":660119,"ESITE":"636827","CODE":66,"NAME":"Station 2","ABB_NAME":"2","ADDRESS":"35431 Veazie Cumberland Rd SE","ZIPCODE":"98022","DISTRICT":"28","NEWSTA":"E","RESOLUTION":"added zip/moved to current location/QC'd","WEBSITE":"http://www.ci.enumclaw.wa.us/fire.htm","PIN":"2821079006","MAJOR":"282107","MINOR":"9006"}},
{"type":"Feature","geometry":{"type":"Point","coordinates":[-122.0592674461236,47.21163065370751]},"properties":{"OBJECTID":4,"FEATURE_ID":660120,"ESITE":"852491","CODE":66,"NAME":"Station 3","ABB_NAME":"3","ADDRESS":"43407 212th Ave SE","ZIPCODE":"98022","DISTRICT":"28","NEWSTA":"E","RESOLUTION":"added zip/moved to current location/QC'd","WEBSITE":"http://www.ci.enumclaw.wa.us/fire.htm","PIN":"2020069042","MAJOR":"202006","MINOR":"9042"}},
{"type":"Feature","geometry":{"type":"Point","coordinates":[-122.4005658775134,47.64016635690154]},"properties":{"OBJECTID":5,"FEATURE_ID":660150,"ESITE":"422179","CODE":66,"NAME":"Station 41","ABB_NAME":"41","ADDRESS":"2416 34th Ave W","ZIPCODE":"98199","DISTRICT":"SE","NEWSTA":"Y","RESOLUTION":"added station manually/QC'd","WEBSITE":"http://www.ci.seattle.wa.us/fire/firestations/stations.htm#sta41","PIN":"2225039052","MAJOR":"222503","MINOR":"9052"}},
{"type":"Feature","geometry":{"type":"Point","coordinates":[-122.1255608298722,47.617374201589826]},"properties":{"OBJECTID":6,"FEATURE_ID":660003,"ESITE":"118015","CODE":66,"NAME":"Station 3","ABB_NAME":"3","ADDRESS":"16100 NE 8th St","ZIPCODE":"98008","DISTRICT":"BE","NEWSTA":"Y","RESOLUTION":"added station manually/QC'd","WEBSITE":"http://www.ci.bellevue.wa.us/fire_stations.htm","PIN":"2625059265","MAJOR":"262505","MINOR":"9265"}},
{"type":"Feature","geometry":{"type":"Point","coordinates":[-122.19625545503695,47.441504603601814]},"properties":{"OBJECTID":7,"FEATURE_ID":10000005,"ESITE":"898633","CODE":66,"NAME":"Station 13","ABB_NAME":"13","ADDRESS":"18002 108th Ave SE","ZIPCODE":"98055","DISTRICT":"40","NEWSTA":"Y","RESOLUTION":"added manualy - moved\n","WEBSITE":"none","PIN":"2923059095","MAJOR":"292305","MINOR":"9095"}},
{"type":"Feature","geometry":{"type":"Point","coordinates":[-121.41437740650841,47.42497041196058]},"properties":{"OBJECTID":8,"FEATURE_ID":10000007,"ESITE":"24500","CODE":66,"NAME":"Station 291","ABB_NAME":"291","ADDRESS":"69802 SE Snoqualmie Pass Summit Rd","ZIPCODE":"98065","DISTRICT":"51","NEWSTA":"Y","RESOLUTION":"new to firestn added 3/12/03\n","WEBSITE":"none","PIN":"0422119001","MAJOR":"042211","MINOR":"9001"}},
{"type":"Feature","geometry":{"type":"Point","coordinates":[-122.033284643151,47.53033517541165]},"properties":{"OBJECTID":9,"FEATURE_ID":10000009,"ESITE":"1009192","CODE":66,"NAME":"Station 71","ABB_NAME":"71","ADDRESS":"190 E Sunset Way","ZIPCODE":"98027","DISTRICT":"10","NEWSTA":"Y","RESOLUTION":"added station manually/QC'd\n","WEBSITE":"none","PIN":"2724069032","MAJOR":"272406","MINOR":"9032"}},
{"type":"Feature","geometry":{"type":"Point","coordinates":[-121.8391602652311,47.53490478933135]},"properties":{"OBJECTID":10,"FEATURE_ID":10000010,"ESITE":"194362","CODE":66,"NAME":"Station 281","ABB_NAME":"281","ADDRESS":"37600 SE Snoqualmie Parkway","ZIPCODE":"98065","DISTRICT":"SN","NEWSTA":"Y","RESOLUTION":"added station manually/QC'd\n","WEBSITE":"none","PIN":"7849202040","MAJOR":"784920","MINOR":"2040"}},
{"type":"Feature","geometry":{"type":"Point","coordinates":[-122.23590874266199,47.790887341432466]},"properties":{"OBJECTID":11,"FEATURE_ID":10000012,"ESITE":"722735","CODE":66,"NAME":"Station 44","ABB_NAME":"44","ADDRESS":"330 228th St SW","ZIPCODE":"98021","DISTRICT":"BO","NEWSTA":"Y","RESOLUTION":"added manually\n","WEBSITE":"none","PIN":"0000000000","MAJOR":"000000","MINOR":"0000"}},
{"type":"Feature","geometry":{"type":"Point","coordinates":[-122.21247928024785,47.79987854548087]},"properties":{"OBJECTID":12,"FEATURE_ID":10000013,"ESITE":"724020","CODE":66,"NAME":"Station 45","ABB_NAME":"45","ADDRESS":"1608 217th Pl SE","ZIPCODE":"98021","DISTRICT":"BO","NEWSTA":"Y","RESOLUTION":"added manually\n","WEBSITE":"none","PIN":"0000000000","MAJOR":"000000","MINOR":"0000"}},
{"type":"Feature","geometry":{"type":"Point","coordinates":[-122.10353769755721,47.37318188412931]},"properties":{"OBJECTID":13,"FEATURE_ID":10000014,"ESITE":"672353","CODE":66,"NAME":"Station 78","ABB_NAME":"78","ADDRESS":"17820 SE 256th St","ZIPCODE":"98042","DISTRICT":"KE","NEWSTA":"Y","RESOLUTION":"added manualy - new\n","WEBSITE":"none","PIN":"2422059064","MAJOR":"242205","MINOR":"9064"}},
{"type":"Feature","geometry":{"type":"Point","coordinates":[-122.03706112562364,47.692112963448125]},"properties":{"OBJECTID":14,"FEATURE_ID":10000015,"ESITE":"355693","CODE":66,"NAME":"Station 18","ABB_NAME":"18","ADDRESS":"22710 NE Alder Crest Dr","ZIPCODE":"98053","DISTRICT":"34","NEWSTA":"E","RESOLUTION":"Relocated former St. 15 new","WEBSITE":"none","PIN":"1525069017","MAJOR":"152506","MINOR":"9017"}},
{"type":"Feature","geometry":{"type":"Point","coordinates":[-122.32833002079488,47.6012646925539]},"properties":{"OBJECTID":15,"FEATURE_ID":10000016,"ESITE":"969817","CODE":66,"NAME":"Station 10","ABB_NAME":"10","ADDRESS":"400 S Washington St","ZIPCODE":"98104","DISTRICT":"SE","NEWSTA":"Y","RESOLUTION":"added manually - new","WEBSITE":"none","PIN":"5247801465","MAJOR":"524780","MINOR":"1465"}},
{"type":"Feature","geometry":{"type":"Point","coordinates":[-122.06148776219806,47.542669442959976]},"properties":{"OBJECTID":16,"FEATURE_ID":660161,"ESITE":"985842","CODE":66,"NAME":"Station 72","ABB_NAME":"72","ADDRESS":"1575 NW Maple St","ZIPCODE":"98027","DISTRICT":"10","NEWSTA":"Y","RESOLUTION":"added manually - new","WEBSITE":"","PIN":"2924069168","MAJOR":"292406","MINOR":"9168"}},
{"type":"Feature","geometry":{"type":"Point","coordinates":[-122.05645177253862,47.5911422667381]},"properties":{"OBJECTID":17,"FEATURE_ID":660092,"ESITE":"12214","CODE":66,"NAME":"Station 81","ABB_NAME":"81","ADDRESS":"2030 212th Ave Se","ZIPCODE":"98075","DISTRICT":"10","NEWSTA":"E","RESOLUTION":"changed station # from 221, city from Issaquah/added zip/moved to curent location/QC'd","WEBSITE":"http://www.eastsidefire-rescue.org/sta81.htm","PIN":"0424069144","MAJOR":"042406","MINOR":"9144"}},
{"type":"Feature","geometry":{"type":"Point","coordinates":[-122.0359413275726,47.626211476322055]},"properties":{"OBJECTID":18,"FEATURE_ID":660093,"ESITE":"12215","CODE":66,"NAME":"Station 82","ABB_NAME":"82","ADDRESS":"1851 228th Ave NE","ZIPCODE":"98074","DISTRICT":"10","NEWSTA":"E","RESOLUTION":"changed station from 222, city from Redmond/added zip/moved to current location/QC'd","WEBSITE":"http://www.eastsidefire-rescue.org/sta82.htm","PIN":"2825069041","MAJOR":"282506","MINOR":"9041"}},
{"type":"Feature","geometry":{"type":"Point","coordinates":[-122.23858214985842,47.70885484047754]},"properties":{"OBJECTID":19,"FEATURE_ID":660156,"ESITE":"166161","CODE":66,"NAME":"Station 25","ABB_NAME":"25","ADDRESS":"12033 76th Pl NE","ZIPCODE":"98034","DISTRICT":"KI","NEWSTA":"Y","RESOLUTION":"added station manually/QC- added district","WEBSITE":"http://www.ci.kirkland.wa.us/depart/Fire_and_Building/Fire___Medical_Services/Fire_Station_Locations/Station_25.htm","PIN":"6076500123","MAJOR":"607650","MINOR":"0123"}},
{"type":"Feature","geometry":{"type":"Point","coordinates":[-122.10167381624828,47.31698924905836]},"properties":{"OBJECTID":20,"FEATURE_ID":660127,"ESITE":"12","CODE":66,"NAME":"Station 92","ABB_NAME":"92","ADDRESS":"31709 Kent Black Diamond Rd SE","ZIPCODE":"98092","DISTRICT":"44","NEWSTA":"E","RESOLUTION":"moved to current location/added city, zip/QC- changed zip from 98002","WEBSITE":"http://www.kcfd44.org/stations.htm","PIN":"0721069033","MAJOR":"072106","MINOR":"9033"}},
{"type":"Feature","geometry":{"type":"Point","coordinates":[-122.20097673088833,47.60320805456576]},"properties":{"OBJECTID":21,"FEATURE_ID":660001,"ESITE":"103850","CODE":66,"NAME":"Station 1","ABB_NAME":"1","ADDRESS":"766 Bellevue Way SE","ZIPCODE":"98004","DISTRICT":"BE","NEWSTA":"Y","RESOLUTION":"added station manually/QC- changed zip from 98007","WEBSITE":"http://www.ci.bellevue.wa.us/fire_stations.htm","PIN":"5223300165","MAJOR":"522330","MINOR":"0165"}},
{"type":"Feature","geometry":{"type":"Point","coordinates":[-122.14225481940647,47.585108917766654]},"properties":{"OBJECTID":22,"FEATURE_ID":660002,"ESITE":"95318","CODE":66,"NAME":"Station 2","ABB_NAME":"2","ADDRESS":"2802 148th Ave SE","ZIPCODE":"98007","DISTRICT":"BE","NEWSTA":"Y","RESOLUTION":"added station manually/QC'd","WEBSITE":"http://www.ci.bellevue.wa.us/fire_stations.htm","PIN":"1124059045","MAJOR":"112405","MINOR":"9045"}},
{"type":"Feature","geometry":{"type":"Point","coordinates":[-122.04408910431535,47.53222945775663]},"properties":{"OBJECTID":23,"FEATURE_ID":660086,"ESITE":"2403","CODE":66,"NAME":"HQ","ABB_NAME":"HQ","ADDRESS":"175 Newport Way NW","ZIPCODE":"98027","DISTRICT":"10","NEWSTA":"N","RESOLUTION":"added zip/location correct/QC'd","WEBSITE":"http://www.eastsidefire-rescue.org/Headquarters.htm","PIN":"2824069165","MAJOR":"282406","MINOR":"9165"}},
{"type":"Feature","geometry":{"type":"Point","coordinates":[-122.34461861736956,47.61609678246242]},"properties":{"OBJECTID":24,"FEATURE_ID":660140,"ESITE":"834189","CODE":66,"NAME":"Station 2","ABB_NAME":"2","ADDRESS":"2334 4th Ave","ZIPCODE":"98121","DISTRICT":"SE","NEWSTA":"Y","RESOLUTION":"added station manually/QC- changed zip from 98104","WEBSITE":"http://www.ci.seattle.wa.us/fire/firestations/stations.htm#sta2","PIN":"0696000160","MAJOR":"069600","MINOR":"0160"}},
{"type":"Feature","geometry":{"type":"Point","coordinates":[-122.33920937289258,47.6037318257808]},"properties":{"OBJECTID":25,"FEATURE_ID":660141,"ESITE":"835907","CODE":66,"NAME":"Station 5","ABB_NAME":"5","ADDRESS":"925 Alaska Way","ZIPCODE":"98104","DISTRICT":"SE","NEWSTA":"Y","RESOLUTION":"added station manually/QC'd","WEBSITE":"http://www.ci.seattle.wa.us/fire/firestations/stations.htm#sta5","PIN":"7666202500","MAJOR":"766620","MINOR":"2500"}},
{"type":"Feature","geometry":{"type":"Point","coordinates":[-122.29164327670387,47.278432243372116]},"properties":{"OBJECTID":26,"FEATURE_ID":660110,"ESITE":"9","CODE":66,"NAME":"Station 61","ABB_NAME":"61","ADDRESS":"3203 S 360th St","ZIPCODE":"98001","DISTRICT":"39","NEWSTA":"N","RESOLUTION":"added zip/station # from 1/QC'd","WEBSITE":"http://www.southkingfire.org/stations.html","PIN":"2721049034","MAJOR":"272104","MINOR":"9034"}},
{"type":"Feature","geometry":{"type":"Point","coordinates":[-122.28708875617589,47.31554450444805]},"properties":{"OBJECTID":27,"FEATURE_ID":660111,"ESITE":"2358","CODE":66,"NAME":"Station 64","ABB_NAME":"64","ADDRESS":"3700 S 320th St","ZIPCODE":"98023","DISTRICT":"39","NEWSTA":"N","RESOLUTION":"added zip/ station # from 4/QC'd - changed zip from 98023","WEBSITE":"http://www.southkingfire.org/stations.html","PIN":"5515600037","MAJOR":"551560","MINOR":"0037"}},
{"type":"Feature","geometry":{"type":"Point","coordinates":[-122.16602606633074,47.41631311634639]},"properties":{"OBJECTID":28,"FEATURE_ID":660117,"ESITE":"626214","CODE":66,"NAME":"Station 77","ABB_NAME":"77","ADDRESS":"20717 132nd Ave SE","ZIPCODE":"98042","DISTRICT":"KE","NEWSTA":"E","RESOLUTION":"zip from 98031/moved to current location/QC- changed location from 21006 132nd ave se","WEBSITE":"http://www.ci.kent.wa.us/fire/stations.asp#77","PIN":"0422059095","MAJOR":"042205","MINOR":"9095"}},
{"type":"Feature","geometry":{"type":"Point","coordinates":[-122.04422622542549,47.39414433965843]},"properties":{"OBJECTID":29,"FEATURE_ID":660130,"ESITE":"619206","CODE":66,"NAME":"Station 81","ABB_NAME":"81","ADDRESS":"22225 SE 231st St","ZIPCODE":"98038","DISTRICT":"43","NEWSTA":"E","RESOLUTION":"moved to current location/QC'd","WEBSITE":"http://www.maplevalleyfire.org/stations/station_81.htm","PIN":"1622069007","MAJOR":"162206","MINOR":"9007"}},
{"type":"Feature","geometry":{"type":"Point","coordinates":[-121.97526058870251,47.357478506062535]},"properties":{"OBJECTID":30,"FEATURE_ID":660131,"ESITE":"662147","CODE":66,"NAME":"Station 82","ABB_NAME":"82","ADDRESS":"27519 SE Kent Kangley Rd","ZIPCODE":"98051","DISTRICT":"43","NEWSTA":"E","RESOLUTION":"moved to current location/QC'd","WEBSITE":"http://www.maplevalleyfire.org/stations/station_82.htm","PIN":"3622069066","MAJOR":"362206","MINOR":"9066"}},
{"type":"Feature","geometry":{"type":"Point","coordinates":[-122.31431464121611,47.759720613539]},"properties":{"OBJECTID":31,"FEATURE_ID":660075,"ESITE":"16140","CODE":66,"NAME":"Station 63","ABB_NAME":"63","ADDRESS":"1410  NE 180th St","ZIPCODE":"98155","DISTRICT":"4","NEWSTA":"E","RESOLUTION":"added zip/address and location correct/changed city from Seattle/QC- moved location, changed PIN","WEBSITE":"http://www.shorelinefire.com/contact.htm","PIN":"6163900601","MAJOR":"616390","MINOR":"0601"}},
{"type":"Feature","geometry":{"type":"Point","coordinates":[-122.28439822385627,47.66875916910541]},"properties":{"OBJECTID":32,"FEATURE_ID":660147,"ESITE":"347263","CODE":66,"NAME":"Station 38","ABB_NAME":"38","ADDRESS":"4004 NE 55th St","ZIPCODE":"98105","DISTRICT":"SE","NEWSTA":"Y","RESOLUTION":"added station manually/QC- changed zip from 98112","WEBSITE":"http://www.ci.seattle.wa.us/fire/firestations/stations.htm#sta38","PIN":"7974700165","MAJOR":"797470","MINOR":"0165"}},
{"type":"Feature","geometry":{"type":"Point","coordinates":[-122.29673730072801,47.72127864961237]},"properties":{"OBJECTID":33,"FEATURE_ID":660148,"ESITE":"271835","CODE":66,"NAME":"Station 39","ABB_NAME":"39","ADDRESS":"12705 30th Ave NE","ZIPCODE":"98125","DISTRICT":"SE","NEWSTA":"Y","RESOLUTION":"added station manually/QC'd","WEBSITE":"http://www.ci.seattle.wa.us/fire/firestations/stations.htm#sta39","PIN":"3834500065","MAJOR":"383450","MINOR":"0065"}},
{"type":"Feature","geometry":{"type":"Point","coordinates":[-122.19556391228592,47.665334021653706]},"properties":{"OBJECTID":34,"FEATURE_ID":660154,"ESITE":"40106","CODE":66,"NAME":"Station 22","ABB_NAME":"22","ADDRESS":"6602 108th Ave NE","ZIPCODE":"98033","DISTRICT":"KI","NEWSTA":"Y","RESOLUTION":"added station manually/QC'd","WEBSITE":"http://www.ci.kirkland.wa.us/depart/Fire_and_Building/Fire___Medical_Services/Fire_Station_Locations/Station_22.htm","PIN":"6836200010","MAJOR":"683620","MINOR":"0010"}},
{"type":"Feature","geometry":{"type":"Point","coordinates":[-122.28154819184402,47.752511733025834]},"properties":{"OBJECTID":35,"FEATURE_ID":660028,"ESITE":"94139","CODE":66,"NAME":"Station 57","ABB_NAME":"57","ADDRESS":"17020 Brookside Blvd NE","ZIPCODE":"98155","DISTRICT":"16","NEWSTA":"Y","RESOLUTION":"added station manually/QC- added district","WEBSITE":"http://www.northshorefire.com/html/depart/locations.asp","PIN":"7611300010","MAJOR":"761130","MINOR":"0010"}},
{"type":"Feature","geometry":{"type":"Point","coordinates":[-122.22880414279231,47.727308941550675]},"properties":{"OBJECTID":36,"FEATURE_ID":660155,"ESITE":"167621","CODE":66,"NAME":"Station 24","ABB_NAME":"24","ADDRESS":"8411 NE 141st St","ZIPCODE":"98011","DISTRICT":"KI","NEWSTA":"Y","RESOLUTION":"added station manually/QC- added district","WEBSITE":"http://www.ci.kirkland.wa.us/depart/Fire_and_Building/Fire___Medical_Services/Fire_Station_Locations/Station_24.htm","PIN":"6675500210","MAJOR":"667550","MINOR":"0210"}},
{"type":"Feature","geometry":{"type":"Point","coordinates":[-122.12651216966387,47.55184373869655]},"properties":{"OBJECTID":37,"FEATURE_ID":660008,"ESITE":"244430","CODE":66,"NAME":"Station 8","ABB_NAME":"8","ADDRESS":"5701 Lakemont Blvd SE","ZIPCODE":"98006","DISTRICT":"BE","NEWSTA":"Y","RESOLUTION":"added station manually/QC'd","WEBSITE":"http://www.ci.bellevue.wa.us/fire_stations.htm","PIN":"2324059074","MAJOR":"232405","MINOR":"9074"}},
{"type":"Feature","geometry":{"type":"Point","coordinates":[-122.27931039817781,47.473796801611186]},"properties":{"OBJECTID":38,"FEATURE_ID":660014,"ESITE":"580434","CODE":66,"NAME":"Station 54","ABB_NAME":"54","ADDRESS":"4237 S 144th St","ZIPCODE":"98168","DISTRICT":"TU","NEWSTA":"Y","RESOLUTION":"added station manually/QC'd","WEBSITE":"http://www.ci.tukwila.wa.us/fire/fdstations.htm","PIN":"0040000365","MAJOR":"004000","MINOR":"0365"}},
{"type":"Feature","geometry":{"type":"Point","coordinates":[-122.06389387264761,47.48298551093614]},"properties":{"OBJECTID":39,"FEATURE_ID":660097,"ESITE":"1025863","CODE":66,"NAME":"Station 78","ABB_NAME":"78","ADDRESS":"20720 SE May Valley Rd","ZIPCODE":"98027","DISTRICT":"10","NEWSTA":"E","RESOLUTION":"station # from 231, city from Renton/add zip/move to current location/QC'd","WEBSITE":"http://www.eastsidefire-rescue.org/sta78.htm","PIN":"5231000100","MAJOR":"523100","MINOR":"0100"}},
{"type":"Feature","geometry":{"type":"Point","coordinates":[-122.22243181213067,47.4623896671524]},"properties":{"OBJECTID":40,"FEATURE_ID":660036,"ESITE":"741432","CODE":66,"NAME":"Station 14","ABB_NAME":"14","ADDRESS":"1900 Lind Ave SW","ZIPCODE":"98055","DISTRICT":"RN","NEWSTA":"Y","RESOLUTION":"added station manually/QC'd","WEBSITE":"http://rentonwa.gov/government/default.aspx?id=1178","PIN":"3340400425","MAJOR":"334040","MINOR":"0425"}},
{"type":"Feature","geometry":{"type":"Point","coordinates":[-122.12473929988079,47.67811549484679]},"properties":{"OBJECTID":41,"FEATURE_ID":660037,"ESITE":"536736","CODE":66,"NAME":"Station 11","ABB_NAME":"11","ADDRESS":"8450 161st Ave NE","ZIPCODE":"98052","DISTRICT":"34","NEWSTA":"Y","RESOLUTION":"added station manually/QC'd","WEBSITE":"http://www.kcfd34.org/","PIN":"0225059159","MAJOR":"022505","MINOR":"9159"}},
{"type":"Feature","geometry":{"type":"Point","coordinates":[-122.30862659643638,47.57172580981183]},"properties":{"OBJECTID":42,"FEATURE_ID":660044,"ESITE":"470903","CODE":66,"NAME":"Station 13","ABB_NAME":"13","ADDRESS":"3601 Beacon Ave S","ZIPCODE":"98144","DISTRICT":"SE","NEWSTA":"Y","RESOLUTION":"added station manually/QC'd","WEBSITE":"http://www.seattle.gov/fleetsfacilities/firelevy/facilities/fs13/13.htm","PIN":"1624049270","MAJOR":"162404","MINOR":"9270"}},
{"type":"Feature","geometry":{"type":"Point","coordinates":[-122.32843632607151,47.5746351015818]},"properties":{"OBJECTID":43,"FEATURE_ID":660045,"ESITE":"457985","CODE":66,"NAME":"Station 14","ABB_NAME":"14","ADDRESS":"3224 4th Ave S","ZIPCODE":"98134","DISTRICT":"SE","NEWSTA":"Y","RESOLUTION":"added station manually/QC'd","WEBSITE":"http://www.seattle.gov/fleetsfacilities/firelevy/facilities/fs14/14.htm","PIN":"7674800085","MAJOR":"767480","MINOR":"0085"}},
{"type":"Feature","geometry":{"type":"Point","coordinates":[-122.32091438008302,47.64296868495138]},"properties":{"OBJECTID":44,"FEATURE_ID":660051,"ESITE":"412689","CODE":66,"NAME":"Station 22","ABB_NAME":"22","ADDRESS":"901 E Roanoke St","ZIPCODE":"98102","DISTRICT":"SE","NEWSTA":"Y","RESOLUTION":"added station manually/QC'd","WEBSITE":"http://www.ci.seattle.wa.us/fire/firestations/stations.htm#sta22","PIN":"5535100285","MAJOR":"553510","MINOR":"0285"}},
{"type":"Feature","geometry":{"type":"Point","coordinates":[-122.35383789715917,47.72305103539317]},"properties":{"OBJECTID":45,"FEATURE_ID":660052,"ESITE":"250355","CODE":66,"NAME":"Station 24","ABB_NAME":"24","ADDRESS":"401 N 130th St","ZIPCODE":"98133","DISTRICT":"SE","NEWSTA":"Y","RESOLUTION":"added station manually/QC'd","WEBSITE":"http://www.ci.seattle.wa.us/fire/firestations/stations.htm#sta24","PIN":"2916200039","MAJOR":"291620","MINOR":"0039"}},
{"type":"Feature","geometry":{"type":"Point","coordinates":[-122.27657231521619,47.54845699146109]},"properties":{"OBJECTID":46,"FEATURE_ID":660056,"ESITE":"480060","CODE":66,"NAME":"Station 28","ABB_NAME":"28","ADDRESS":"5968 Rainier Ave S","ZIPCODE":"98118","DISTRICT":"SE","NEWSTA":"Y","RESOLUTION":"added station manually/QC'd","WEBSITE":"http://www.seattle.gov/fleetsfacilities/firelevy/facilities/fs28/28.htm","PIN":"8113101080","MAJOR":"811310","MINOR":"1080"}},
{"type":"Feature","geometry":{"type":"Point","coordinates":[-122.20865253140018,47.29114647112589]},"properties":{"OBJECTID":47,"FEATURE_ID":660069,"ESITE":"714146","CODE":66,"NAME":"Station 32","ABB_NAME":"32","ADDRESS":"1951 R St SE","ZIPCODE":"98002","DISTRICT":"AU","NEWSTA":"Y","RESOLUTION":"new to firestn added 3/12/03","WEBSITE":"http://www.auburn.govoffice.com/index.asp?Type=B_BASIC&SEC=%7BE08D5610-13C2-43CF-BD60-73161881325E%7D","PIN":"1921059336","MAJOR":"192105","MINOR":"9336"}},
{"type":"Feature","geometry":{"type":"Point","coordinates":[-122.24422522629837,47.759496493757574]},"properties":{"OBJECTID":48,"FEATURE_ID":660076,"ESITE":"5922","CODE":66,"NAME":"Station 51","ABB_NAME":"51","ADDRESS":"7220 NE 181st St","ZIPCODE":"98028","DISTRICT":"16","NEWSTA":"E","RESOLUTION":"correct address/changed its location over a parcel/city from Bothell/changed zip/QC'd","WEBSITE":"http://www.northshorefire.com/html/depart/locations.asp","PIN":"0114100560","MAJOR":"011410","MINOR":"0560"}},
{"type":"Feature","geometry":{"type":"Point","coordinates":[-121.87010661506278,47.69210172179622]},"properties":{"OBJECTID":49,"FEATURE_ID":660096,"ESITE":"155","CODE":66,"NAME":"Station 86","ABB_NAME":"86","ADDRESS":"10644 E Lake Joy Dr NE","ZIPCODE":"98014","DISTRICT":"10","NEWSTA":"E","RESOLUTION":"station # from 242/added zip/ moved to current location/QC'd","WEBSITE":"http://www.eastsidefire-rescue.org/sta86.htm","PIN":"4045500967","MAJOR":"404550","MINOR":"0967"}},
{"type":"Feature","geometry":{"type":"Point","coordinates":[-121.91293854294295,47.75549037002181]},"properties":{"OBJECTID":50,"FEATURE_ID":660083,"ESITE":"123536","CODE":66,"NAME":"Station 68","ABB_NAME":"68","ADDRESS":"18005 Mountain View Rd NE","ZIPCODE":"98019","DISTRICT":"45","NEWSTA":"E","RESOLUTION":"changed station # and address (from 31733 NE 180 Pl)/added zip/QC'd - replacing '04","WEBSITE":"http://www.duvallfire45.com/index.php?option=com_content&task=view&id=20&Itemid=35","PIN":"1549500391","MAJOR":"154950","MINOR":"0391"}},
{"type":"Feature","geometry":{"type":"Point","coordinates":[-122.10242371465613,47.569333341340624]},"properties":{"OBJECTID":51,"FEATURE_ID":660090,"ESITE":"2404","CODE":66,"NAME":"Station 75","ABB_NAME":"75","ADDRESS":"4225 180th Ave SE","ZIPCODE":"98008","DISTRICT":"10","NEWSTA":"N","RESOLUTION":"location correct/added zip/station # from 213/QC - changed zip from 98052","WEBSITE":"http://eastsidefire-rescue.org/sta75.htm","PIN":"1324059064","MAJOR":"132405","MINOR":"9064"}},
{"type":"Feature","geometry":{"type":"Point","coordinates":[-122.24354006877955,47.417339608026424]},"properties":{"OBJECTID":52,"FEATURE_ID":660021,"ESITE":"799751","CODE":66,"NAME":"Station 76","ABB_NAME":"76","ADDRESS":"20676 72nd Ave S","ZIPCODE":"98032","DISTRICT":"KE","NEWSTA":"Y","RESOLUTION":"added station manually/QC'd","WEBSITE":"http://www.ci.kent.wa.us/fire/stations.asp#76","PIN":"6314400101","MAJOR":"631440","MINOR":"0101"}},
{"type":"Feature","geometry":{"type":"Point","coordinates":[-122.33197646897116,47.599789333407514]},"properties":{"OBJECTID":53,"FEATURE_ID":660042,"ESITE":"450518","CODE":66,"NAME":"Station 10","ABB_NAME":"10","ADDRESS":"301 2nd Ave S","ZIPCODE":"98104","DISTRICT":"SE","NEWSTA":"Y","RESOLUTION":"added station manually/QC'd","WEBSITE":"http://www.seattle.gov/fleetsfacilities/firelevy/facilities/fs10/10.htm","PIN":"5247800725","MAJOR":"524780","MINOR":"0725"}},
{"type":"Feature","geometry":{"type":"Point","coordinates":[-122.37384981422126,47.648764975465284]},"properties":{"OBJECTID":54,"FEATURE_ID":660049,"ESITE":"412793","CODE":66,"NAME":"Station 20","ABB_NAME":"20","ADDRESS":"3205 13th Ave W","ZIPCODE":"98119","DISTRICT":"SE","NEWSTA":"Y","RESOLUTION":"added station manually/QC'd","WEBSITE":"http://www.ci.seattle.wa.us/fire/firestations/stations.htm#sta20","PIN":"2770604505","MAJOR":"277060","MINOR":"4505"}},
{"type":"Feature","geometry":{"type":"Point","coordinates":[-122.37975071101727,47.5608392208725]},"properties":{"OBJECTID":55,"FEATURE_ID":660060,"ESITE":"460278","CODE":66,"NAME":"Station 32","ABB_NAME":"32","ADDRESS":"3715 SW Alaska St","ZIPCODE":"98126","DISTRICT":"SE","NEWSTA":"Y","RESOLUTION":"added station manually/QC'd","WEBSITE":"http://www.seattle.gov/fleetsfacilities/firelevy/facilities/fs32/32.htm","PIN":"6126600005","MAJOR":"612660","MINOR":"0005"}},
{"type":"Feature","geometry":{"type":"Point","coordinates":[-122.14324110336358,47.44302410454335]},"properties":{"OBJECTID":56,"FEATURE_ID":660068,"ESITE":"610016","CODE":66,"NAME":"Station 17","ABB_NAME":"17","ADDRESS":"14810 SE Petrovitsky Rd","ZIPCODE":"98058","DISTRICT":"40","NEWSTA":"Y","RESOLUTION":"new to firestn added 3/12/03","WEBSITE":"http://www.fd40.com/","PIN":"3523059040","MAJOR":"352305","MINOR":"9040"}},
{"type":"Feature","geometry":{"type":"Point","coordinates":[-121.91511591113267,47.64106197918695]},"properties":{"OBJECTID":57,"FEATURE_ID":660095,"ESITE":"153","CODE":66,"NAME":"Station 85","ABB_NAME":"85","ADDRESS":"3600 Tolt Ave","ZIPCODE":"98014","DISTRICT":"10","NEWSTA":"E","RESOLUTION":"station # from 241/added zip/ moved to curernt location/QC- moved loc. south on tolt ave","WEBSITE":"http://www.eastsidefire-rescue.org/sta85.htm","PIN":"2125079064","MAJOR":"212507","MINOR":"9064"}},
{"type":"Feature","geometry":{"type":"Point","coordinates":[-122.01551031874335,47.247785932548766]},"properties":{"OBJECTID":58,"FEATURE_ID":660121,"ESITE":"10","CODE":66,"NAME":"Station 94","ABB_NAME":"94","ADDRESS":"39404 244th Ave SE","ZIPCODE":"98022","DISTRICT":"44","NEWSTA":"E","RESOLUTION":"added zip/moved to current location/QC'd","WEBSITE":"http://www.kcfd44.org/stations.htm","PIN":"0220069011","MAJOR":"022006","MINOR":"9011"}},
{"type":"Feature","geometry":{"type":"Point","coordinates":[-121.878882397445,47.36206563763048]},"properties":{"OBJECTID":59,"FEATURE_ID":660122,"ESITE":"661999","CODE":66,"NAME":"Station 88","ABB_NAME":"88","ADDRESS":"34824 SE 268th St","ZIPCODE":"98051","DISTRICT":"47","NEWSTA":"E","RESOLUTION":"added zip, city/moved to current location/QC'd, update address and name","WEBSITE":"http://www.firedepartments.net/Washington/Palmer/KingCountyFireProtectionDistrict47.html","PIN":"2622079114","MAJOR":"262207","MINOR":"9114"}},
{"type":"Feature","geometry":{"type":"Point","coordinates":[-121.8964692363462,47.32130761519054]},"properties":{"OBJECTID":60,"FEATURE_ID":660123,"ESITE":"802472","CODE":66,"NAME":"Station 89","ABB_NAME":"89","ADDRESS":"33536 SE 309th St","ZIPCODE":"98051","DISTRICT":"47","NEWSTA":"E","RESOLUTION":"unable to locate/QC- placed station correctly, added PIN, city, zip, change name","WEBSITE":"http://www.firedepartments.net/Washington/Palmer/KingCountyFireProtectionDistrict47.html","PIN":"1021079140","MAJOR":"102107","MINOR":"9140"}},
{"type":"Feature","geometry":{"type":"Point","coordinates":[-121.36125841924814,47.70789184622253]},"properties":{"OBJECTID":61,"FEATURE_ID":660135,"ESITE":"72907","CODE":66,"NAME":"Station 1","ABB_NAME":"1","ADDRESS":"107 Old Cascade Hwy W","ZIPCODE":"98288","DISTRICT":"50","NEWSTA":"E","RESOLUTION":"moved to current location/QC- changed address from 105","WEBSITE":"none","PIN":"5061300115","MAJOR":"506130","MINOR":"0115"}},
{"type":"Feature","geometry":{"type":"Point","coordinates":[-122.35163944134095,47.50258439767569]},"properties":{"OBJECTID":62,"FEATURE_ID":660136,"ESITE":"504175","CODE":66,"NAME":"Station 18","ABB_NAME":"18","ADDRESS":"1243 SW 112th ST","ZIPCODE":"98146","DISTRICT":"11","NEWSTA":"N","RESOLUTION":"in correct position/added zip/QC'd","WEBSITE":"none","PIN":"0723049107","MAJOR":"072304","MINOR":"9107"}},
{"type":"Feature","geometry":{"type":"Point","coordinates":[-122.15917147879637,47.75648621293626]},"properties":{"OBJECTID":63,"FEATURE_ID":660078,"ESITE":"21175","CODE":66,"NAME":"Station 31","ABB_NAME":"31","ADDRESS":"17718 Woodinville Snohomish Rd","ZIPCODE":"98072","DISTRICT":"36","NEWSTA":"E","RESOLUTION":"chaged address from19900 144th Ave SE/ added city, zip/moved point to current location/QC'd","WEBSITE":"http://www.wflsd.org/stations/31.htm","PIN":"9517100095","MAJOR":"951710","MINOR":"0095"}},
{"type":"Feature","geometry":{"type":"Point","coordinates":[-122.13291526101546,47.48677913963567]},"properties":{"OBJECTID":64,"FEATURE_ID":660099,"ESITE":"573201","CODE":66,"NAME":"Station 16","ABB_NAME":"16","ADDRESS":"12923 156th Ave SE","ZIPCODE":"98059","DISTRICT":"RN","NEWSTA":"E","RESOLUTION":"station # from 25/added zip/moved to current location/QC'd","WEBSITE":"http://rentonwa.gov/government/default.aspx?id=1178","PIN":"1423059095","MAJOR":"142305","MINOR":"9095"}},
{"type":"Feature","geometry":{"type":"Point","coordinates":[-122.21160883728594,47.63176191410403]},"properties":{"OBJECTID":65,"FEATURE_ID":660005,"ESITE":"109345","CODE":66,"NAME":"Station 5","ABB_NAME":"5","ADDRESS":"9621 NE 24th St","ZIPCODE":"98004","DISTRICT":"BE","NEWSTA":"Y","RESOLUTION":"added station manually/QC'd","WEBSITE":"http://www.ci.bellevue.wa.us/fire_stations.htm","PIN":"8086000375","MAJOR":"808600","MINOR":"0375"}},
{"type":"Feature","geometry":{"type":"Point","coordinates":[-122.181312932931,47.603706763752406]},"properties":{"OBJECTID":66,"FEATURE_ID":660007,"ESITE":"111225","CODE":66,"NAME":"Station 7","ABB_NAME":"7","ADDRESS":"11900 SE 8th St","ZIPCODE":"98005","DISTRICT":"BE","NEWSTA":"Y","RESOLUTION":"added station manually/QC'd","WEBSITE":"http://www.ci.bellevue.wa.us/fire_stations.htm","PIN":"9399700960","MAJOR":"939970","MINOR":"0960"}},
{"type":"Feature","geometry":{"type":"Point","coordinates":[-122.22395008609267,47.541798951305694]},"properties":{"OBJECTID":67,"FEATURE_ID":660010,"ESITE":"187860","CODE":66,"NAME":"Station 92","ABB_NAME":"92","ADDRESS":"8473 SE 68th St","ZIPCODE":"98040","DISTRICT":"MI","NEWSTA":"Y","RESOLUTION":"added station manually/QC'd","WEBSITE":"http://www.ci.mercer-island.wa.us/Page.asp?NavID=2071","PIN":"3024059111","MAJOR":"302405","MINOR":"9111"}},
{"type":"Feature","geometry":{"type":"Point","coordinates":[-122.25015217766631,47.451796551845156]},"properties":{"OBJECTID":68,"FEATURE_ID":660011,"ESITE":"593273","CODE":66,"NAME":"Station 51","ABB_NAME":"51","ADDRESS":"444 Andover Park E","ZIPCODE":"98188","DISTRICT":"TU","NEWSTA":"Y","RESOLUTION":"added station manually/QC'd","WEBSITE":"http://www.ci.tukwila.wa.us/fire/fdstations.htm","PIN":"0223400080","MAJOR":"022340","MINOR":"0080"}},
{"type":"Feature","geometry":{"type":"Point","coordinates":[-122.2594706473119,47.47160848387494]},"properties":{"OBJECTID":69,"FEATURE_ID":660012,"ESITE":"599692","CODE":66,"NAME":"Station 52","ABB_NAME":"52","ADDRESS":"5900 S 147th St","ZIPCODE":"98168","DISTRICT":"TU","NEWSTA":"Y","RESOLUTION":"added station manually/QC'd","WEBSITE":"http://www.ci.tukwila.wa.us/fire/fdstations.htm","PIN":"3365901275","MAJOR":"336590","MINOR":"1275"}},
{"type":"Feature","geometry":{"type":"Point","coordinates":[-122.29088440391702,47.466725971580644]},"properties":{"OBJECTID":70,"FEATURE_ID":660017,"ESITE":"400159","CODE":66,"NAME":"Station 47","ABB_NAME":"47","ADDRESS":"3215 S 152nd St","ZIPCODE":"98168","DISTRICT":"ST","NEWSTA":"Y","RESOLUTION":"added station manually/QC- moved one parcel east","WEBSITE":"http://www.ci.seatac.wa.us/department/stations.htm","PIN":"0043000009","MAJOR":"004300","MINOR":"0009"}},
{"type":"Feature","geometry":{"type":"Point","coordinates":[-122.1972837469634,47.76222035892385]},"properties":{"OBJECTID":71,"FEATURE_ID":660024,"ESITE":"177502","CODE":66,"NAME":"Station 42","ABB_NAME":"42","ADDRESS":"10726 Beardslee Blvd","ZIPCODE":"98011","DISTRICT":"BO","NEWSTA":"Y","RESOLUTION":"added station manually/QC'd","WEBSITE":"http://www.ci.bothell.wa.us/html/getaroundcity.html","PIN":"3067600050","MAJOR":"306760","MINOR":"0050"}},
{"type":"Feature","geometry":{"type":"Point","coordinates":[-121.7853371175011,47.49597216300411]},"properties":{"OBJECTID":72,"FEATURE_ID":660025,"ESITE":"988637","CODE":66,"NAME":"Station 87","ABB_NAME":"87","ADDRESS":"112 W 2nd St","ZIPCODE":"98045","DISTRICT":"38","NEWSTA":"Y","RESOLUTION":"added station manually/QC'd","WEBSITE":"http://www.eastsidefire-rescue.org/sta87.htm","PIN":"7846700355","MAJOR":"784670","MINOR":"0355"}},
{"type":"Feature","geometry":{"type":"Point","coordinates":[-121.76379846577139,47.44486956054631]},"properties":{"OBJECTID":73,"FEATURE_ID":660026,"ESITE":"22635","CODE":66,"NAME":"Station 88","ABB_NAME":"88","ADDRESS":"43204 SE 172nd St","ZIPCODE":"98045","DISTRICT":"38","NEWSTA":"Y","RESOLUTION":"added station manually/QC- added district","WEBSITE":"http://www.eastsidefire-rescue.org/sta88.htm","PIN":"9407100520","MAJOR":"940710","MINOR":"0520"}},
{"type":"Feature","geometry":{"type":"Point","coordinates":[-121.92862947139565,47.523193257241836]},"properties":{"OBJECTID":74,"FEATURE_ID":660089,"ESITE":"90585","CODE":66,"NAME":"Station 74","ABB_NAME":"74","ADDRESS":"8641 Preston Fall City Rd SE","ZIPCODE":"98027","DISTRICT":"10","NEWSTA":"N","RESOLUTION":"added zip/ location correct/QC - changed city from Preston","WEBSITE":"http://www.eastsidefire-rescue.org/sta74.htm","PIN":"6893300640","MAJOR":"689330","MINOR":"0640"}},
{"type":"Feature","geometry":{"type":"Point","coordinates":[-122.37713624139761,47.69326990054563]},"properties":{"OBJECTID":75,"FEATURE_ID":660144,"ESITE":"252183","CODE":66,"NAME":"Station 35","ABB_NAME":"35","ADDRESS":"8729 15th Ave NW","ZIPCODE":"98117","DISTRICT":"SE","NEWSTA":"Y","RESOLUTION":"added station manually/QC'd","WEBSITE":"http://www.ci.seattle.wa.us/fire/firestations/stations.htm#sta35","PIN":"3300700810","MAJOR":"330070","MINOR":"0810"}},
{"type":"Feature","geometry":{"type":"Point","coordinates":[-122.09330275765473,47.66454185281354]},"properties":{"OBJECTID":76,"FEATURE_ID":660039,"ESITE":"366703","CODE":66,"NAME":"Station 16","ABB_NAME":"16","ADDRESS":"6502 185th Ave NE","ZIPCODE":"98052","DISTRICT":"34","NEWSTA":"Y","RESOLUTION":"added station manually/QC'd","WEBSITE":"http://www.ci.redmond.wa.us/cityservices/maps/stationsresponseareas.pdf","PIN":"7198950106","MAJOR":"719895","MINOR":"0106"}},
{"type":"Feature","geometry":{"type":"Point","coordinates":[-122.35522977751943,47.63129434276097]},"properties":{"OBJECTID":77,"FEATURE_ID":660040,"ESITE":"414203","CODE":66,"NAME":"Station 8","ABB_NAME":"8","ADDRESS":"110 Lee St","ZIPCODE":"98109","DISTRICT":"SE","NEWSTA":"Y","RESOLUTION":"added station manually/QC'd","WEBSITE":"http://www.ci.seattle.wa.us/fire/firestations/stations.htm#sta8","PIN":"2127200025","MAJOR":"212720","MINOR":"0025"}},
{"type":"Feature","geometry":{"type":"Point","coordinates":[-122.09380801077931,47.34194532638643]},"properties":{"OBJECTID":78,"FEATURE_ID":660128,"ESITE":"13","CODE":66,"NAME":"Station 93","ABB_NAME":"93","ADDRESS":"18610 SE Covington Sawyer Rd","ZIPCODE":"98042","DISTRICT":"44","NEWSTA":"E","RESOLUTION":"moved to current location/added city/zip/QC- changed city, zip from Auburn","WEBSITE":"http://www.kcfd44.org/stations.htm","PIN":"0621069143","MAJOR":"062106","MINOR":"9143"}},
{"type":"Feature","geometry":{"type":"Point","coordinates":[-122.14376490465253,47.31180163859791]},"properties":{"OBJECTID":79,"FEATURE_ID":660129,"ESITE":"716914","CODE":66,"NAME":"Station 95","ABB_NAME":"95","ADDRESS":"32316 148th Ave SE","ZIPCODE":"98092","DISTRICT":"44","NEWSTA":"E","RESOLUTION":"moved to current location/added city, zip/QC- changed zip from 98002","WEBSITE":"http://www.kcfd44.org/stations.htm","PIN":"2152000078","MAJOR":"215200","MINOR":"0078"}},
{"type":"Feature","geometry":{"type":"Point","coordinates":[-122.20928326824856,47.695560502087076]},"properties":{"OBJECTID":80,"FEATURE_ID":660153,"ESITE":"28636","CODE":66,"NAME":"Station 21","ABB_NAME":"21","ADDRESS":"9816 Forbes Creek Dr","ZIPCODE":"98033","DISTRICT":"KI","NEWSTA":"Y","RESOLUTION":"added station manually/QC'd","WEBSITE":"http://www.ci.kirkland.wa.us/depart/Fire_and_Building/Fire___Medical_Services/Fire_Station_Locations/Station_21.htm","PIN":"3126059037","MAJOR":"312605","MINOR":"9037"}},
{"type":"Feature","geometry":{"type":"Point","coordinates":[-122.17488781023063,47.689210730660434]},"properties":{"OBJECTID":81,"FEATURE_ID":660157,"ESITE":"29938","CODE":66,"NAME":"Station 26","ABB_NAME":"26","ADDRESS":"9930 124th Ave NE","ZIPCODE":"98033","DISTRICT":"KI","NEWSTA":"Y","RESOLUTION":"added station manually/QC'd","WEBSITE":"http://www.ci.kirkland.wa.us/depart/Fire_and_Building/Fire___Medical_Services/Fire_Station_Locations/Station_26.htm","PIN":"6741700020","MAJOR":"674170","MINOR":"0020"}},
{"type":"Feature","geometry":{"type":"Point","coordinates":[-122.19153993365757,47.71884882557937]},"properties":{"OBJECTID":82,"FEATURE_ID":660158,"ESITE":"168459","CODE":66,"NAME":"Station 27","ABB_NAME":"27","ADDRESS":"11210 NE 132nd St","ZIPCODE":"98034","DISTRICT":"KI","NEWSTA":"Y","RESOLUTION":"added station manually/QC- added district","WEBSITE":"http://www.ci.kirkland.wa.us/depart/Fire_and_Building/Fire___Medical_Services/Fire_Station_Locations/Station_27.htm","PIN":"2026059055","MAJOR":"202605","MINOR":"9055"}},
{"type":"Feature","geometry":{"type":"Point","coordinates":[-122.2377761091013,47.37624298474491]},"properties":{"OBJECTID":83,"FEATURE_ID":660018,"ESITE":"666786","CODE":66,"NAME":"Station 71","ABB_NAME":"71","ADDRESS":"504 W Crow St","ZIPCODE":"98032","DISTRICT":"KE","NEWSTA":"Y","RESOLUTION":"added station manually/QC'd","WEBSITE":"http://www.ci.kent.wa.us/fire/stations.asp#71","PIN":"9197100092","MAJOR":"919710","MINOR":"0092"}},
{"type":"Feature","geometry":{"type":"Point","coordinates":[-122.2912175116988,47.36366623260657]},"properties":{"OBJECTID":84,"FEATURE_ID":660019,"ESITE":"678049","CODE":66,"NAME":"Station 73","ABB_NAME":"73","ADDRESS":"26512 Military Rd S","ZIPCODE":"98032","DISTRICT":"KE","NEWSTA":"Y","RESOLUTION":"added station manually/QC'd","WEBSITE":"http://www.ci.kent.wa.us/fire/stations.asp#73","PIN":"2722049014","MAJOR":"272204","MINOR":"9014"}},
{"type":"Feature","geometry":{"type":"Point","coordinates":[-122.37843376062004,47.65600504704625]},"properties":{"OBJECTID":85,"FEATURE_ID":660032,"ESITE":"423021","CODE":66,"NAME":"Station 23","ABB_NAME":"23","ADDRESS":"1735 W Thurman St","ZIPCODE":"98119","DISTRICT":"SE","NEWSTA":"Y","RESOLUTION":"NEW station; unsure location/QC'd - changed number from 23","WEBSITE":"http://www.ci.seattle.wa.us/fire/firestations/stations.htm#sta3","PIN":"7666200105","MAJOR":"766620","MINOR":"0105"}},
{"type":"Feature","geometry":{"type":"Point","coordinates":[-122.37730508088934,47.66839169826097]},"properties":{"OBJECTID":86,"FEATURE_ID":660048,"ESITE":"321456","CODE":66,"NAME":"Station 18","ABB_NAME":"18","ADDRESS":"1521 NW Market St","ZIPCODE":"98107","DISTRICT":"SE","NEWSTA":"Y","RESOLUTION":"added station manually/QC'd","WEBSITE":"http://www.ci.seattle.wa.us/fire/firestations/stations.htm#sta18","PIN":"2767701250","MAJOR":"276770","MINOR":"1250"}},
{"type":"Feature","geometry":{"type":"Point","coordinates":[-122.2947606825372,47.57554460173213]},"properties":{"OBJECTID":87,"FEATURE_ID":660058,"ESITE":"476135","CODE":66,"NAME":"Station 30","ABB_NAME":"30","ADDRESS":"2931 S Mt Baker Blvd","ZIPCODE":"98144","DISTRICT":"SE","NEWSTA":"Y","RESOLUTION":"added station manually/QC- changed location","WEBSITE":"http://www.seattle.gov/fleetsfacilities/firelevy/facilities/fs30/30.htm","PIN":"0003600035","MAJOR":"000360","MINOR":"0035"}},
{"type":"Feature","geometry":{"type":"Point","coordinates":[-122.34115149337076,47.704782328024706]},"properties":{"OBJECTID":88,"FEATURE_ID":660059,"ESITE":"256668","CODE":66,"NAME":"Station 31","ABB_NAME":"31","ADDRESS":"1319 N Northgate Way","ZIPCODE":"98133","DISTRICT":"SE","NEWSTA":"Y","RESOLUTION":"added station manually/QC'd","WEBSITE":"http://www.ci.seattle.wa.us/fire/firestations/stations.htm#sta31","PIN":"6300500315","MAJOR":"630050","MINOR":"0315"}},
{"type":"Feature","geometry":{"type":"Point","coordinates":[-122.08108794071369,47.71772937232969]},"properties":{"OBJECTID":89,"FEATURE_ID":660079,"ESITE":"21177","CODE":66,"NAME":"Station 33","ABB_NAME":"33","ADDRESS":"19401 NE 133rd St","ZIPCODE":"98072","DISTRICT":"36","NEWSTA":"N","RESOLUTION":"added city, zip/location correct/QC'd","WEBSITE":"http://www.wflsd.org/stations/33.htm","PIN":"0625100025","MAJOR":"062510","MINOR":"0025"}},
{"type":"Feature","geometry":{"type":"Point","coordinates":[-122.02800292982539,47.578474551844394]},"properties":{"OBJECTID":90,"FEATURE_ID":660094,"ESITE":"12216","CODE":66,"NAME":"Station 83","ABB_NAME":"83","ADDRESS":"3425 Issaquah Pine Lake Rd SE","ZIPCODE":"98027","DISTRICT":"10","NEWSTA":"E","RESOLUTION":"station # from 223/address from 3425 Pine Lake Rd SE, city from Issaquah/add zip/moved loc/QC'd","WEBSITE":"http://www.eastsidefire-rescue.org/sta83.htm","PIN":"1024069192","MAJOR":"102406","MINOR":"9192"}},
{"type":"Feature","geometry":{"type":"Point","coordinates":[-122.23860266311783,47.49142167558019]},"properties":{"OBJECTID":91,"FEATURE_ID":660101,"ESITE":"506964","CODE":66,"NAME":"Station 22","ABB_NAME":"22","ADDRESS":"12417 76th Ave S","ZIPCODE":"98178","DISTRICT":"20","NEWSTA":"E","RESOLUTION":"added zip/moved to current location/QC'd","WEBSITE":"none","PIN":"0231000020","MAJOR":"023100","MINOR":"0020"}},
{"type":"Feature","geometry":{"type":"Point","coordinates":[-122.32251694264183,47.52669847048778]},"properties":{"OBJECTID":92,"FEATURE_ID":660054,"ESITE":"510768","CODE":66,"NAME":"Station 26","ABB_NAME":"26","ADDRESS":"800 S Cloverdale St","ZIPCODE":"98108","DISTRICT":"SE","NEWSTA":"Y","RESOLUTION":"added station manually/QC'd","WEBSITE":"http://www.seattle.gov/fleetsfacilities/firelevy/facilities/fs26/26.htm","PIN":"7883604285","MAJOR":"788360","MINOR":"4285"}},
{"type":"Feature","geometry":{"type":"Point","coordinates":[-122.22546975848071,47.31791771783952]},"properties":{"OBJECTID":93,"FEATURE_ID":660065,"ESITE":"707373","CODE":66,"NAME":"Station 31 - HQ","ABB_NAME":"31 - HQ","ADDRESS":"1101 D St NE","ZIPCODE":"98002","DISTRICT":"AU","NEWSTA":"Y","RESOLUTION":"new to firestn added 3/12/03","WEBSITE":"http://www.ci.auburn.wa.us/fire/","PIN":"7459920010","MAJOR":"745992","MINOR":"0010"}},
{"type":"Feature","geometry":{"type":"Point","coordinates":[-122.10226837157771,47.2432079267876]},"properties":{"OBJECTID":94,"FEATURE_ID":660066,"ESITE":"1008768","CODE":66,"NAME":"Station 96","ABB_NAME":"96","ADDRESS":"17920 SE 400th St","ZIPCODE":"98092","DISTRICT":"44","NEWSTA":"E","RESOLUTION":"moved to new location on SE 400th St","WEBSITE":"http://www.kcfd44.org/stations.htm","PIN":"0120059020","MAJOR":"012005","MINOR":"9020"}},
{"type":"Feature","geometry":{"type":"Point","coordinates":[-122.38201145824873,47.77040042193992]},"properties":{"OBJECTID":95,"FEATURE_ID":660074,"ESITE":"142710","CODE":66,"NAME":"Station 62","ABB_NAME":"62","ADDRESS":"1851 NW 195th St","ZIPCODE":"98177","DISTRICT":"4","NEWSTA":"E","RESOLUTION":"INACTIVE/address from 1847 NW 195th/QC-Changed address from 1735 NW 193rd (called district)-inactive","WEBSITE":"http://www.shorelinefire.com/pubed/safety%20center/Safety%20Center%20Brochure_SE_2006.pdf","PIN":"0226039142","MAJOR":"022603","MINOR":"9142"}},
{"type":"Feature","geometry":{"type":"Point","coordinates":[-122.3327624847862,47.441875714053204]},"properties":{"OBJECTID":96,"FEATURE_ID":660105,"ESITE":"606537","CODE":66,"NAME":"Station 29","ABB_NAME":"29","ADDRESS":"135 S Normandy  Rd","ZIPCODE":"98148","DISTRICT":"2","NEWSTA":"E","RESOLUTION":"added zip/address from 151 S Normandy Rd/moved to current location/QC'd","WEBSITE":"http://www.burienfire.org/station_apparatus/stations.html","PIN":"3223049165","MAJOR":"322304","MINOR":"9165"}},
{"type":"Feature","geometry":{"type":"Point","coordinates":[-121.98724607236346,47.651845631777]},"properties":{"OBJECTID":97,"FEATURE_ID":660088,"ESITE":"355218","CODE":66,"NAME":"Station 14","ABB_NAME":"14","ADDRESS":"5021 264th Ave NE","ZIPCODE":"98053","DISTRICT":"34","NEWSTA":"E","RESOLUTION":"changed address from 5050/added zip/moved to current location/QC'd","WEBSITE":"http://www.kcfd34.org/about.htm","PIN":"1325069082","MAJOR":"132506","MINOR":"9082"}},
{"type":"Feature","geometry":{"type":"Point","coordinates":[-122.31414968250206,47.35928870063981]},"properties":{"OBJECTID":98,"FEATURE_ID":660113,"ESITE":"389966","CODE":66,"NAME":"Station 66","ABB_NAME":"66","ADDRESS":"27010 15th Ave S","ZIPCODE":"98198","DISTRICT":"39","NEWSTA":"E","RESOLUTION":"station # from 6/added zip/moved to current location/QC'd","WEBSITE":"http://www.southkingfire.org/stations.html","PIN":"9536602015","MAJOR":"953660","MINOR":"2015"}},
{"type":"Feature","geometry":{"type":"Point","coordinates":[-121.9729054059629,47.41566799835822]},"properties":{"OBJECTID":99,"FEATURE_ID":660133,"ESITE":"617752","CODE":66,"NAME":"Station 85","ABB_NAME":"85","ADDRESS":"27605 SE 208th St","ZIPCODE":"98038","DISTRICT":"43","NEWSTA":"E","RESOLUTION":"moved to current location/QC'd","WEBSITE":"http://www.maplevalleyfire.org/stations/station_85.htm","PIN":"0722079123","MAJOR":"072207","MINOR":"9123"}},
{"type":"Feature","geometry":{"type":"Point","coordinates":[-122.33558662487818,47.318456090080105]},"properties":{"OBJECTID":100,"FEATURE_ID":660022,"ESITE":"709431","CODE":66,"NAME":"Station 62","ABB_NAME":"62","ADDRESS":"31617 1st Ave S","ZIPCODE":"98003","DISTRICT":"39","NEWSTA":"Y","RESOLUTION":"added station manually/QC- added district","WEBSITE":"http://www.southkingfire.org/stations.html","PIN":"0721049210","MAJOR":"072104","MINOR":"9210"}},
{"type":"Feature","geometry":{"type":"Point","coordinates":[-122.26865709093805,47.51585642403359]},"properties":{"OBJECTID":101,"FEATURE_ID":660061,"ESITE":"514671","CODE":66,"NAME":"Station 33","ABB_NAME":"33","ADDRESS":"9645 Renton Ave S","ZIPCODE":"98118","DISTRICT":"SE","NEWSTA":"Y","RESOLUTION":"added station manually/QC'd","WEBSITE":"http://www.seattle.gov/fleetsfacilities/firelevy/facilities/fs33/33.htm","PIN":"7131300008","MAJOR":"713130","MINOR":"0008"}},
{"type":"Feature","geometry":{"type":"Point","coordinates":[-121.98429484302999,47.46584323575004]},"properties":{"OBJECTID":102,"FEATURE_ID":660091,"ESITE":"198317","CODE":66,"NAME":"Station 76","ABB_NAME":"76","ADDRESS":"15132 Tiger Mountain Rd SE","ZIPCODE":"98027","DISTRICT":"10","NEWSTA":"E","RESOLUTION":"changed city from Issaquah/added zip/moved to current location/QC - changed city from Mirrormont","WEBSITE":"http://www.eastsidefire-rescue.org/sta76.htm","PIN":"2423069144","MAJOR":"242306","MINOR":"9144"}},
{"type":"Feature","geometry":{"type":"Point","coordinates":[-122.06332079490271,47.68025739819883]},"properties":{"OBJECTID":103,"FEATURE_ID":660085,"ESITE":"12135","CODE":66,"NAME":"Station 13","ABB_NAME":"13","ADDRESS":"8701 208th Ave NE","ZIPCODE":"98053","DISTRICT":"34","NEWSTA":"E","RESOLUTION":"moved to current location/added zip/QC'd","WEBSITE":"http://www.kcfd34.org/about.htm","PIN":"0525069084","MAJOR":"052506","MINOR":"9084"}},
{"type":"Feature","geometry":{"type":"Point","coordinates":[-122.31236752214176,47.48881240369228]},"properties":{"OBJECTID":104,"FEATURE_ID":660103,"ESITE":"515184","CODE":66,"NAME":"Station 19","ABB_NAME":"19","ADDRESS":"1606 S 128th ST","ZIPCODE":"98168","DISTRICT":"11","NEWSTA":"E","RESOLUTION":"added zip/moved to current location/QC- changed zip from 98146","WEBSITE":"none","PIN":"0985001167","MAJOR":"098500","MINOR":"1167"}},
{"type":"Feature","geometry":{"type":"Point","coordinates":[-122.46693147946911,47.38932319668799]},"properties":{"OBJECTID":105,"FEATURE_ID":660107,"ESITE":"406315","CODE":66,"NAME":"Station 56","ABB_NAME":"56","ADDRESS":"10330 SW Burton Dr","ZIPCODE":"98070","DISTRICT":"13","NEWSTA":"E","RESOLUTION":"moved to current location/QC'd","WEBSITE":"http://www.vifr.org/section_home/home_pg1.htm","PIN":"1822039125","MAJOR":"182203","MINOR":"9125"}},
{"type":"Feature","geometry":{"type":"Point","coordinates":[-122.46071113512058,47.36756812693672]},"properties":{"OBJECTID":106,"FEATURE_ID":660108,"ESITE":"406005","CODE":66,"NAME":"Station 58","ABB_NAME":"58","ADDRESS":"26316 99th Ave SW","ZIPCODE":"98070","DISTRICT":"13","NEWSTA":"E","RESOLUTION":"moved to current location/QC'd","WEBSITE":"http://www.vifr.org/section_home/home_pg1.htm","PIN":"2051200261","MAJOR":"205120","MINOR":"0261"}},
{"type":"Feature","geometry":{"type":"Point","coordinates":[-122.32318964208362,47.67910213657227]},"properties":{"OBJECTID":107,"FEATURE_ID":660046,"ESITE":"341761","CODE":66,"NAME":"Station 16","ABB_NAME":"16","ADDRESS":"6846 Oswego Pl NE","ZIPCODE":"98115","DISTRICT":"SE","NEWSTA":"Y","RESOLUTION":"added station manually/QC'd","WEBSITE":"http://www.ci.seattle.wa.us/fire/firestations/stations.htm#sta16","PIN":"9528103550","MAJOR":"952810","MINOR":"3550"}},
{"type":"Feature","geometry":{"type":"Point","coordinates":[-122.31519125466673,47.615534403680705]},"properties":{"OBJECTID":108,"FEATURE_ID":660053,"ESITE":"441707","CODE":66,"NAME":"Station 25","ABB_NAME":"25","ADDRESS":"1300 E Pine St","ZIPCODE":"98122","DISTRICT":"SE","NEWSTA":"Y","RESOLUTION":"added station manually/QC'd","WEBSITE":"http://www.ci.seattle.wa.us/fire/firestations/stations.htm#sta25","PIN":"6003000740","MAJOR":"600300","MINOR":"0740"}},
{"type":"Feature","geometry":{"type":"Point","coordinates":[-122.18748425721022,47.25338539339509]},"properties":{"OBJECTID":109,"FEATURE_ID":660160,"ESITE":"980562","CODE":66,"NAME":"Station 33","ABB_NAME":"33","ADDRESS":"500 182nd Ave E","ZIPCODE":"98391","DISTRICT":"AU","NEWSTA":"Y","RESOLUTION":"added manually - new","WEBSITE":"","PIN":"0000000000","MAJOR":"000000","MINOR":"0000"}},
{"type":"Feature","geometry":{"type":"Point","coordinates":[-121.99259614396348,47.202535908497765]},"properties":{"OBJECTID":110,"FEATURE_ID":660118,"ESITE":"394639","CODE":66,"NAME":"Station 1","ABB_NAME":"1","ADDRESS":"1330 Wells St","ZIPCODE":"98022","DISTRICT":"28","NEWSTA":"E","RESOLUTION":"added zip/moved to current location/QC'd","WEBSITE":"http://www.ci.enumclaw.wa.us/fire.htm","PIN":"2420069058","MAJOR":"242006","MINOR":"9058"}},
{"type":"Feature","geometry":{"type":"Point","coordinates":[-122.00463683482882,47.309006895139404]},"properties":{"OBJECTID":111,"FEATURE_ID":660124,"ESITE":"638053","CODE":66,"NAME":"Station 99","ABB_NAME":"99","ADDRESS":"25313 Baker St","ZIPCODE":"98010","DISTRICT":"17","NEWSTA":"E","RESOLUTION":"moved to current location/QC- changed station # from 171","WEBSITE":"http://www.kcfd44.org/stations.htm","PIN":"0844000810","MAJOR":"084400","MINOR":"0810"}},
{"type":"Feature","geometry":{"type":"Point","coordinates":[-121.89501702502734,47.56811650364251]},"properties":{"OBJECTID":112,"FEATURE_ID":660139,"ESITE":"2353","CODE":66,"NAME":"Station 271","ABB_NAME":"271","ADDRESS":"4301 334th Pl SE","ZIPCODE":"98024","DISTRICT":"27","NEWSTA":"N","RESOLUTION":"in correct position/QC'd","WEBSITE":"http://www.firedepartments.net/Washington/FallCity/KingCountyFireProtectionDistrictNo27.html","PIN":"0943100422","MAJOR":"094310","MINOR":"0422"}},
{"type":"Feature","geometry":{"type":"Point","coordinates":[-122.20339233517134,47.48083100552798]},"properties":{"OBJECTID":113,"FEATURE_ID":660159,"ESITE":"579405","CODE":66,"NAME":"Station 11","ABB_NAME":"11","ADDRESS":"211 Mill Ave S","ZIPCODE":"98055","DISTRICT":"RN","NEWSTA":"Y","RESOLUTION":"added station manually/QC- changed address from 311","WEBSITE":"http://rentonwa.gov/government/default.aspx?id=1178","PIN":"7231500960","MAJOR":"723150","MINOR":"0960"}},
{"type":"Feature","geometry":{"type":"Point","coordinates":[-122.2807595402995,47.5008301467403]},"properties":{"OBJECTID":114,"FEATURE_ID":660013,"ESITE":"745130","CODE":66,"NAME":"Station 53","ABB_NAME":"53","ADDRESS":"4202 S 115th St","ZIPCODE":"98168","DISTRICT":"TU","NEWSTA":"Y","RESOLUTION":"added station manually/QC'd","WEBSITE":"http://www.ci.tukwila.wa.us/fire/fdstations.htm","PIN":"3351400825","MAJOR":"335140","MINOR":"0825"}},
{"type":"Feature","geometry":{"type":"Point","coordinates":[-122.36178708351642,47.571004811965715]},"properties":{"OBJECTID":115,"FEATURE_ID":660145,"ESITE":"465144","CODE":66,"NAME":"Station 36","ABB_NAME":"36","ADDRESS":"3600 23rd Ave SW","ZIPCODE":"98106","DISTRICT":"SE","NEWSTA":"Y","RESOLUTION":"added station mnaually/QC'd","WEBSITE":"http://www.seattle.gov/fleetsfacilities/firelevy/facilities/fs36/36.htm","PIN":"1324039040","MAJOR":"132403","MINOR":"9040"}},
{"type":"Feature","geometry":{"type":"Point","coordinates":[-122.38874932678488,47.58438361236346]},"properties":{"OBJECTID":116,"FEATURE_ID":660057,"ESITE":"456040","CODE":66,"NAME":"Station 29","ABB_NAME":"29","ADDRESS":"2139 Ferry Ave SW","ZIPCODE":"98116","DISTRICT":"SE","NEWSTA":"Y","RESOLUTION":"added station manually/QC'd","WEBSITE":"http://www.seattle.gov/fleetsfacilities/firelevy/facilities/fs29/29.htm","PIN":"9274200920","MAJOR":"927420","MINOR":"0920"}},
{"type":"Feature","geometry":{"type":"Point","coordinates":[-122.34669003031662,47.75644425859132]},"properties":{"OBJECTID":117,"FEATURE_ID":660073,"ESITE":"141805","CODE":66,"NAME":"Station 61 - HQ","ABB_NAME":"61 - HQ","ADDRESS":"17525 Aurora Ave N","ZIPCODE":"98133","DISTRICT":"4","NEWSTA":"E","RESOLUTION":"changed address from 1016 N 175th St/ changed city from Seattle to Shoreline/QC'd","WEBSITE":"http://www.shorelinefire.com/contact.htm","PIN":"0726049162","MAJOR":"072604","MINOR":"9162"}},
{"type":"Feature","geometry":{"type":"Point","coordinates":[-122.2912467652517,47.626060431280045]},"properties":{"OBJECTID":118,"FEATURE_ID":660143,"ESITE":"440755","CODE":66,"NAME":"Station 34","ABB_NAME":"34","ADDRESS":"633 32nd Ave E","ZIPCODE":"98112","DISTRICT":"SE","NEWSTA":"Y","RESOLUTION":"added station manually/QC'd","WEBSITE":"http://www.ci.seattle.wa.us/fire/firestations/stations.htm#sta34","PIN":"5332200100","MAJOR":"533220","MINOR":"0100"}},
{"type":"Feature","geometry":{"type":"Point","coordinates":[-122.16889543840703,47.57021086029607]},"properties":{"OBJECTID":119,"FEATURE_ID":660004,"ESITE":"236851","CODE":66,"NAME":"Station 4","ABB_NAME":"4","ADDRESS":"4216 Factoria Blvd SE","ZIPCODE":"98006","DISTRICT":"BE","NEWSTA":"Y","RESOLUTION":"added station manually/QC- added station #","WEBSITE":"http://www.ci.bellevue.wa.us/fire_stations.htm","PIN":"1624059234","MAJOR":"162405","MINOR":"9234"}},
{"type":"Feature","geometry":{"type":"Point","coordinates":[-122.29515532171025,47.42244623360232]},"properties":{"OBJECTID":120,"FEATURE_ID":660015,"ESITE":"398355","CODE":66,"NAME":"Station 45","ABB_NAME":"45 - HQ","ADDRESS":"2929 S 200th St","ZIPCODE":"98198","DISTRICT":"ST","NEWSTA":"Y","RESOLUTION":"added station manually/QC'd","WEBSITE":"http://www.ci.seatac.wa.us/department/stations.htm","PIN":"3445000019","MAJOR":"344500","MINOR":"0019"}},
{"type":"Feature","geometry":{"type":"Point","coordinates":[-122.24780011074206,47.264843187297046]},"properties":{"OBJECTID":121,"FEATURE_ID":660030,"ESITE":"729218","CODE":66,"NAME":"Station 38","ABB_NAME":"38","ADDRESS":"133 3rd Ave SE","ZIPCODE":"98047","DISTRICT":"PA","NEWSTA":"Y","RESOLUTION":"added station manually/QC- changed address from 100","WEBSITE":"http://cityofpacific.com/fire.html","PIN":"3355900475","MAJOR":"335590","MINOR":"0475"}},
{"type":"Feature","geometry":{"type":"Point","coordinates":[-122.30321039594374,47.402383521887224]},"properties":{"OBJECTID":122,"FEATURE_ID":660070,"ESITE":"380825","CODE":66,"NAME":"Station 67","ABB_NAME":"26 - HQ","ADDRESS":"2238 S 223rd St","ZIPCODE":"98198","DISTRICT":"26","NEWSTA":"Y","RESOLUTION":"new to firestn added 3/12/03","WEBSITE":"http://66.175.4.144/serv_res/safety.html","PIN":"0922049236","MAJOR":"092204","MINOR":"9236"}},
{"type":"Feature","geometry":{"type":"Point","coordinates":[-122.13254412892876,47.357512523153005]},"properties":{"OBJECTID":123,"FEATURE_ID":660116,"ESITE":"674627","CODE":66,"NAME":"Station 75","ABB_NAME":"75","ADDRESS":"15635 SE 272nd St","ZIPCODE":"98042","DISTRICT":"KE","NEWSTA":"E","RESOLUTION":"moved to current location/QC- changed address from 15636","WEBSITE":"http://www.ci.kent.wa.us/fire/stations.asp#75","PIN":"3522059180","MAJOR":"352205","MINOR":"9180"}},
{"type":"Feature","geometry":{"type":"Point","coordinates":[-122.04860772404489,47.336440660497495]},"properties":{"OBJECTID":124,"FEATURE_ID":660125,"ESITE":"806264","CODE":66,"NAME":"Station 98","ABB_NAME":"98","ADDRESS":"22015 SE 296th St","ZIPCODE":"98010","DISTRICT":"17","NEWSTA":"E","RESOLUTION":"moved to current location/QC- changed station # from 172 & city from Kent, zip","WEBSITE":"http://www.kcfd44.org/stations.htm","PIN":"0421069092","MAJOR":"042106","MINOR":"9092"}},
{"type":"Feature","geometry":{"type":"Point","coordinates":[-122.27122140856001,47.3351814862763]},"properties":{"OBJECTID":125,"FEATURE_ID":660112,"ESITE":"691182","CODE":66,"NAME":"Station 65","ABB_NAME":"65","ADDRESS":"4966 S 289th St","ZIPCODE":"98001","DISTRICT":"39","NEWSTA":"E","RESOLUTION":"station # from 5/added zip/moved to current location/QC- change address from 298th","WEBSITE":"http://www.southkingfire.org/stations.html","PIN":"0321049126","MAJOR":"032104","MINOR":"9126"}},
{"type":"Feature","geometry":{"type":"Point","coordinates":[-122.15434857304797,47.371831230031404]},"properties":{"OBJECTID":126,"FEATURE_ID":660115,"ESITE":"664099","CODE":66,"NAME":"Station 72","ABB_NAME":"72","ADDRESS":"25620 140th Ave SE","ZIPCODE":"98042","DISTRICT":"KE","NEWSTA":"E","RESOLUTION":"moved to current location/QC'd","WEBSITE":"http://www.ci.kent.wa.us/fire/stations.asp#72","PIN":"2722059161","MAJOR":"272205","MINOR":"9161"}},
{"type":"Feature","geometry":{"type":"Point","coordinates":[-122.18727123559407,47.38151791848675]},"properties":{"OBJECTID":127,"FEATURE_ID":660020,"ESITE":"633824","CODE":66,"NAME":"Station 74 - HQ","ABB_NAME":"74 - HQ","ADDRESS":"24611 116th Ave SE","ZIPCODE":"98031","DISTRICT":"KE","NEWSTA":"Y","RESOLUTION":"added station manually/QC'd","WEBSITE":"http://www.ci.kent.wa.us/fire/stations.asp#74","PIN":"2022059126","MAJOR":"202205","MINOR":"9126"}},
{"type":"Feature","geometry":{"type":"Point","coordinates":[-122.1791634891948,47.50352095417687]},"properties":{"OBJECTID":128,"FEATURE_ID":660034,"ESITE":"588546","CODE":66,"NAME":"Station 12","ABB_NAME":"12","ADDRESS":"1209 Kirkland Ave NE","ZIPCODE":"98056","DISTRICT":"RN","NEWSTA":"Y","RESOLUTION":"added station manually/QC'd - NEW location, changed address","WEBSITE":"http://www.iaff864.org/index.cfm?zone=/unionactive/office_locations.cfm","PIN":"7227801450","MAJOR":"722780","MINOR":"1450"}},
{"type":"Feature","geometry":{"type":"Point","coordinates":[-122.34896453450779,47.65361943603008]},"properties":{"OBJECTID":129,"FEATURE_ID":660041,"ESITE":"319994","CODE":66,"NAME":"Station 9","ABB_NAME":"9","ADDRESS":"3829 Linden Ave N","ZIPCODE":"98103","DISTRICT":"SE","NEWSTA":"Y","RESOLUTION":"added station manually/QC'd","WEBSITE":"http://www.ci.seattle.wa.us/fire/firestations/stations.htm#sta9","PIN":"1972201405","MAJOR":"197220","MINOR":"1405"}},
{"type":"Feature","geometry":{"type":"Point","coordinates":[-122.35471678798687,47.53392699844787]},"properties":{"OBJECTID":130,"FEATURE_ID":660043,"ESITE":"483778","CODE":66,"NAME":"Station 11","ABB_NAME":"11","ADDRESS":"1514 SW Holden St","ZIPCODE":"98106","DISTRICT":"SE","NEWSTA":"Y","RESOLUTION":"added station manually/QC'd","WEBSITE":"http://www.seattle.gov/fleetsfacilities/firelevy/facilities/fs11/11.htm","PIN":"2112701145","MAJOR":"211270","MINOR":"1145"}},
{"type":"Feature","geometry":{"type":"Point","coordinates":[-122.16391909283902,47.62610379993734]},"properties":{"OBJECTID":131,"FEATURE_ID":660006,"ESITE":"116194","CODE":66,"NAME":"Station 6","ABB_NAME":"6","ADDRESS":"1850 132nd Ave NE","ZIPCODE":"98005","DISTRICT":"BE","NEWSTA":"Y","RESOLUTION":"added station manually/QC'd","WEBSITE":"http://www.ci.bellevue.wa.us/fire_stations.htm","PIN":"2725059254","MAJOR":"272505","MINOR":"9254"}},
{"type":"Feature","geometry":{"type":"Point","coordinates":[-121.9845610584868,47.74110605119534]},"properties":{"OBJECTID":132,"FEATURE_ID":660031,"ESITE":"123616","CODE":66,"NAME":"Station 66","ABB_NAME":"66","ADDRESS":"15600 1st Ave NE","ZIPCODE":"98019","DISTRICT":"45","NEWSTA":"Y","RESOLUTION":"QC - added station manually","WEBSITE":"http://www.duvallfire45.com/index.php?option=com_content&task=view&id=20&Itemid=35","PIN":"2130700930","MAJOR":"213070","MINOR":"0930"}},
{"type":"Feature","geometry":{"type":"Point","coordinates":[-122.14363392591956,47.64843777249386]},"properties":{"OBJECTID":133,"FEATURE_ID":660038,"ESITE":"104485","CODE":66,"NAME":"Station 12","ABB_NAME":"12","ADDRESS":"4211 148th Ave NE","ZIPCODE":"98007","DISTRICT":"34","NEWSTA":"Y","RESOLUTION":"added station manually/QC- changed city & zip from Redmond after contacting dept.","WEBSITE":"http://www.ci.redmond.wa.us/cityservices/maps/stationsresponseareas.pdf","PIN":"1525059145","MAJOR":"152505","MINOR":"9145"}},
{"type":"Feature","geometry":{"type":"Point","coordinates":[-122.3277674432166,47.741008948790714]},"properties":{"OBJECTID":134,"FEATURE_ID":660152,"ESITE":"17320","CODE":66,"NAME":"Station 65","ABB_NAME":"65","ADDRESS":"145 NE 155th St","ZIPCODE":"98155","DISTRICT":"4","NEWSTA":"Y","RESOLUTION":"added station manually/QC'd","WEBSITE":"http://www.shorelinefire.com/contact.htm","PIN":"0411100055","MAJOR":"041110","MINOR":"0055"}},
{"type":"Feature","geometry":{"type":"Point","coordinates":[-122.2330817850052,47.58275397810255]},"properties":{"OBJECTID":135,"FEATURE_ID":660009,"ESITE":"192484","CODE":66,"NAME":"Station 91","ABB_NAME":"91","ADDRESS":"3030 78th Ave SE","ZIPCODE":"98040","DISTRICT":"MI","NEWSTA":"Y","RESOLUTION":"added station manually/QC'd","WEBSITE":"http://www.ci.mercer-island.wa.us/SectionIndex.asp?SectionID=83","PIN":"5315101155","MAJOR":"531510","MINOR":"1155"}},
{"type":"Feature","geometry":{"type":"Point","coordinates":[-122.24675312496902,47.73907977286077]},"properties":{"OBJECTID":136,"FEATURE_ID":10000008,"ESITE":"150088","CODE":66,"NAME":"Station 54","ABB_NAME":"54","ADDRESS":"15036 70th Ave NE","ZIPCODE":"98028","DISTRICT":"16","NEWSTA":"E","RESOLUTION":"moved location to adjacent parcel/corect address/QC - changed zip from 98011\n","WEBSITE":"none","PIN":"3649100122","MAJOR":"364910","MINOR":"0122"}},
{"type":"Feature","geometry":{"type":"Point","coordinates":[-122.06710070498447,47.46538609434314]},"properties":{"OBJECTID":137,"FEATURE_ID":10000032,"ESITE":"5733","CODE":66,"NAME":"Station 79","ABB_NAME":"79","ADDRESS":"20505 SE 152nd St","ZIPCODE":"98059","DISTRICT":"10","NEWSTA":"E","RESOLUTION":"station # from 232/added zip/moved to current location/QC - changed zip from 98058","WEBSITE":"","PIN":"2023069044","MAJOR":"202306","MINOR":"9044"}},
{"type":"Feature","geometry":{"type":"Point","coordinates":[-122.35016513217133,47.76287678717066]},"properties":{"OBJECTID":138,"FEATURE_ID":660151,"ESITE":"888157","CODE":66,"NAME":"Station 64","ABB_NAME":"64","ADDRESS":"719 N 185th St","ZIPCODE":"98133","DISTRICT":"4","NEWSTA":"Y","RESOLUTION":"added station manually/QC'd","WEBSITE":"http://www.shorelinefire.com/contact.htm","PIN":"7285900106","MAJOR":"728590","MINOR":"0106"}},
{"type":"Feature","geometry":{"type":"Point","coordinates":[-122.05315486186782,47.35633391719366]},"properties":{"OBJECTID":139,"FEATURE_ID":660132,"ESITE":"661065","CODE":66,"NAME":"Station 83","ABB_NAME":"83","ADDRESS":"27250 216th Ave SE","ZIPCODE":"98038","DISTRICT":"43","NEWSTA":"N","RESOLUTION":"moved to current location/QC'd","WEBSITE":"http://www.maplevalleyfire.org/stations/station_86.htm","PIN":"3322069064","MAJOR":"332206","MINOR":"9064"}},
{"type":"Feature","geometry":{"type":"Point","coordinates":[-122.36029648683295,47.30202690782307]},"properties":{"OBJECTID":140,"FEATURE_ID":660023,"ESITE":"708590","CODE":66,"NAME":"Station 63","ABB_NAME":"63","ADDRESS":"33414 21st Ave SW","ZIPCODE":"98023","DISTRICT":"39","NEWSTA":"Y","RESOLUTION":"added station manually/QC- added district","WEBSITE":"http://www.southkingfire.org/stations.html","PIN":"1321039062","MAJOR":"132103","MINOR":"9062"}},
{"type":"Feature","geometry":{"type":"Point","coordinates":[-122.02224593652014,47.36443455471199]},"properties":{"OBJECTID":141,"FEATURE_ID":660029,"ESITE":"672899","CODE":66,"NAME":"Station 80","ABB_NAME":"80","ADDRESS":"23775 SE 264th St","ZIPCODE":"98038","DISTRICT":"43","NEWSTA":"Y","RESOLUTION":"added station manually/QC- added district","WEBSITE":"http://www.maplevalleyfire.org/stations/station_80.htm","PIN":"8081300060","MAJOR":"808130","MINOR":"0060"}},
{"type":"Feature","geometry":{"type":"Point","coordinates":[-121.92134626161494,47.69448760316239]},"properties":{"OBJECTID":142,"FEATURE_ID":660084,"ESITE":"191","CODE":66,"NAME":"Station 69","ABB_NAME":"69","ADDRESS":"10801 313th Ave NE","ZIPCODE":"98014","DISTRICT":"45","NEWSTA":"E","RESOLUTION":"moved to current location/ added zip/QC- changed station #, replacing '04","WEBSITE":"http://www.duvallfire45.com/index.php?option=com_content&task=view&id=20&Itemid=35","PIN":"4046500090","MAJOR":"404650","MINOR":"0090"}},
{"type":"Feature","geometry":{"type":"Point","coordinates":[-122.46700175747509,47.498492398214616]},"properties":{"OBJECTID":143,"FEATURE_ID":660109,"ESITE":"21166","CODE":66,"NAME":"Station 59","ABB_NAME":"59","ADDRESS":"11983 Vashon Hwy SW","ZIPCODE":"98070","DISTRICT":"13","NEWSTA":"E","RESOLUTION":"moved to current location/QC'd","WEBSITE":"http://www.vifr.org/section_home/home_pg1.htm","PIN":"8887001816","MAJOR":"888700","MINOR":"1816"}},
{"type":"Feature","geometry":{"type":"Point","coordinates":[-122.46283984959419,47.44788441166129]},"properties":{"OBJECTID":144,"FEATURE_ID":660106,"ESITE":"406706","CODE":66,"NAME":"Station 55","ABB_NAME":"55","ADDRESS":"10020 SW Bank Rd","ZIPCODE":"98070","DISTRICT":"13","NEWSTA":"E","RESOLUTION":"moved to current location/QC- changed address from 10019, moved across street","WEBSITE":"http://www.kcls.org/vash/home.cfm","PIN":"3023039166","MAJOR":"302303","MINOR":"9166"}},
{"type":"Feature","geometry":{"type":"Point","coordinates":[-122.2279412509801,47.49832218050228]},"properties":{"OBJECTID":145,"FEATURE_ID":660102,"ESITE":"12244","CODE":66,"NAME":"Station 21","ABB_NAME":"21","ADDRESS":"11619 84th Ave S","ZIPCODE":"98178","DISTRICT":"20","NEWSTA":"E","RESOLUTION":"added zip/moved to current location/QC'd","WEBSITE":"none","PIN":"3810000400","MAJOR":"381000","MINOR":"0400"}},
{"type":"Feature","geometry":{"type":"Point","coordinates":[-122.17467031205918,47.54134342101165]},"properties":{"OBJECTID":146,"FEATURE_ID":660100,"ESITE":"237340","CODE":66,"NAME":"Station 9","ABB_NAME":"9","ADDRESS":"12412 SE 69th Way","ZIPCODE":"98006","DISTRICT":"BE","NEWSTA":"E","RESOLUTION":"station # from 72/city from Renton/added zip/moved to current location/QC'd","WEBSITE":"http://www.ci.bellevue.wa.us/fire_stations.htm","PIN":"1951820080","MAJOR":"195182","MINOR":"0080"}},
{"type":"Feature","geometry":{"type":"Point","coordinates":[-122.50453800743348,47.331898527951964]},"properties":{"OBJECTID":147,"FEATURE_ID":10000004,"ESITE":"408867","CODE":66,"NAME":"Station 57","ABB_NAME":"57","ADDRESS":"30223 131st Ave SW","ZIPCODE":"98070","DISTRICT":"13","NEWSTA":"Y","RESOLUTION":"new to firestn added 3/12/03\n","WEBSITE":"none","PIN":"0221029085","MAJOR":"022102","MINOR":"9085"}},
{"type":"Feature","geometry":{"type":"Point","coordinates":[-122.11370134620248,47.70334498432291]},"properties":{"OBJECTID":148,"FEATURE_ID":660162,"ESITE":"367578","CODE":66,"NAME":"Station 17","ABB_NAME":"17","ADDRESS":"16917 NE 116 St","ZIPCODE":"98105","DISTRICT":"34","NEWSTA":"Y","RESOLUTION":"added manually - new","WEBSITE":"","PIN":"3626059005","MAJOR":"362605","MINOR":"9005"}},
{"type":"Feature","geometry":{"type":"Point","coordinates":[-122.08236542837815,47.4502543822544]},"properties":{"OBJECTID":149,"FEATURE_ID":10000031,"ESITE":"9256","CODE":66,"NAME":"Station 84","ABB_NAME":"84","ADDRESS":"16855 194th Ave SE","ZIPCODE":"98058","DISTRICT":"48","NEWSTA":"E","RESOLUTION":"moved to current location/QC'd","WEBSITE":"","PIN":"5112800245","MAJOR":"511280","MINOR":"0245"}},
{"type":"Feature","geometry":{"type":"Point","coordinates":[-122.3199250070673,47.53964909486684]},"properties":{"OBJECTID":150,"FEATURE_ID":660055,"ESITE":"486614","CODE":66,"NAME":"Station 27","ABB_NAME":"27","ADDRESS":"1000 S Myrtle St","ZIPCODE":"98108","DISTRICT":"SE","NEWSTA":"Y","RESOLUTION":"added station manually/QC'd","WEBSITE":"http://www.seattle.gov/fleetsfacilities/firelevy/facilities/fs27/27.htm","PIN":"0001800018","MAJOR":"000180","MINOR":"0018"}},
{"type":"Feature","geometry":{"type":"Point","coordinates":[-122.29094855789553,47.69673078614884]},"properties":{"OBJECTID":151,"FEATURE_ID":660149,"ESITE":"252923","CODE":66,"NAME":"Station 40","ABB_NAME":"40","ADDRESS":"9401 35th Ave NE","ZIPCODE":"98115","DISTRICT":"SE","NEWSTA":"Y","RESOLUTION":"added station manually/QC- changed address from 25th","WEBSITE":"http://www.ci.seattle.wa.us/fire/firestations/stations.htm#sta40","PIN":"5652600315","MAJOR":"565260","MINOR":"0315"}},
{"type":"Feature","geometry":{"type":"Point","coordinates":[-122.31669092177245,47.665201860731806]},"properties":{"OBJECTID":152,"FEATURE_ID":660047,"ESITE":"335005","CODE":66,"NAME":"Station 17","ABB_NAME":"17","ADDRESS":"1050 NE 50th St","ZIPCODE":"98105","DISTRICT":"SE","NEWSTA":"Y","RESOLUTION":"added station manually/QC'd","WEBSITE":"http://www.ci.seattle.wa.us/fire/firestations/stations.htm#sta17","PIN":"6746701655","MAJOR":"674670","MINOR":"1655"}},
{"type":"Feature","geometry":{"type":"Point","coordinates":[-122.28660006678274,47.4510055926867]},"properties":{"OBJECTID":153,"FEATURE_ID":660016,"ESITE":"396576","CODE":66,"NAME":"Station 46 - HQ","ABB_NAME":"46 - HQ","ADDRESS":"3521 S 170th St","ZIPCODE":"98188","DISTRICT":"ST","NEWSTA":"Y","RESOLUTION":"added station manually/QC'd","WEBSITE":"http://www.ci.seatac.wa.us/department/stations.htm","PIN":"4435000195","MAJOR":"443500","MINOR":"0195"}},
{"type":"Feature","geometry":{"type":"Point","coordinates":[-122.35380020255008,47.32189190358996]},"properties":{"OBJECTID":154,"FEATURE_ID":660114,"ESITE":"687852","CODE":66,"NAME":"Station 68","ABB_NAME":"68","ADDRESS":"1405 SW 312th St","ZIPCODE":"98023","DISTRICT":"39","NEWSTA":"E","RESOLUTION":"added zip/moved to current location/QC'd - changed # from 8","WEBSITE":"http://www.southkingfire.org/stations.html","PIN":"0721049209","MAJOR":"072104","MINOR":"9209"}},
{"type":"Feature","geometry":{"type":"Point","coordinates":[-122.35495029134421,47.68200641789576]},"properties":{"OBJECTID":155,"FEATURE_ID":660050,"ESITE":"320852","CODE":66,"NAME":"Station 21","ABB_NAME":"21","ADDRESS":"7304 Greenwood Ave N","ZIPCODE":"98103","DISTRICT":"SE","NEWSTA":"Y","RESOLUTION":"added station manually/QC'd","WEBSITE":"http://www.ci.seattle.wa.us/fire/firestations/stations.htm#sta21","PIN":"3363400200","MAJOR":"336340","MINOR":"0200"}},
{"type":"Feature","geometry":{"type":"Point","coordinates":[-122.05934259836145,47.2888428764315]},"properties":{"OBJECTID":156,"FEATURE_ID":660067,"ESITE":"638108","CODE":66,"NAME":"Station 97","ABB_NAME":"97","ADDRESS":"34920 212th AVE SE","ZIPCODE":"98092","DISTRICT":"44","NEWSTA":"Y","RESOLUTION":"new to firestn added 3/12/03","WEBSITE":"http://www.kcfd44.org/stations.htm","PIN":"2121069043","MAJOR":"212106","MINOR":"9043"}},
{"type":"Feature","geometry":{"type":"Point","coordinates":[-122.30276706211659,47.60138909289875]},"properties":{"OBJECTID":157,"FEATURE_ID":660142,"ESITE":"436744","CODE":66,"NAME":"Station 6","ABB_NAME":"6","ADDRESS":"101 23rd Ave S","ZIPCODE":"98144","DISTRICT":"SE","NEWSTA":"Y","RESOLUTION":"added station manually/QC'd","WEBSITE":"http://www.ci.seattle.wa.us/fire/firestations/stations.htm#sta6","PIN":"9826701650","MAJOR":"982670","MINOR":"1650"}},
{"type":"Feature","geometry":{"type":"Point","coordinates":[-122.37628731739937,47.53352684577929]},"properties":{"OBJECTID":158,"FEATURE_ID":660146,"ESITE":"477688","CODE":66,"NAME":"Station 37","ABB_NAME":"37","ADDRESS":"7700 35th Ave SW","ZIPCODE":"98126","DISTRICT":"SE","NEWSTA":"Y","RESOLUTION":"added station manually/QC'd","WEBSITE":"http://www.seattle.gov/fleetsfacilities/firelevy/facilities/fs37/37.htm","PIN":"8122100070","MAJOR":"812210","MINOR":"0070"}},
{"type":"Feature","geometry":{"type":"Point","coordinates":[-122.34403990264467,47.46746679438905]},"properties":{"OBJECTID":159,"FEATURE_ID":660104,"ESITE":"598194","CODE":66,"NAME":"Station 28 - HQ","ABB_NAME":"28 - HQ","ADDRESS":"15100 8th Ave SW","ZIPCODE":"98166","DISTRICT":"2","NEWSTA":"E","RESOLUTION":"added zip/moved to current location/QC'd","WEBSITE":"http://www.burienfire.org/station_apparatus/stations.html","PIN":"1923049201","MAJOR":"192304","MINOR":"9201"}},
{"type":"Feature","geometry":{"type":"Point","coordinates":[-122.17594931074056,47.32227951963051]},"properties":{"OBJECTID":160,"FEATURE_ID":660126,"ESITE":"11","CODE":66,"NAME":"Station 34","ABB_NAME":"34","ADDRESS":"31204 124th Ave SE","ZIPCODE":"98092","DISTRICT":"AU","NEWSTA":"E","RESOLUTION":"moved to current location/ added city, zip/QC'd","WEBSITE":"http://www.kcfd44.org/stations.htm","PIN":"0921059068","MAJOR":"092105","MINOR":"9068"}},
{"type":"Feature","geometry":{"type":"Point","coordinates":[-122.01319703414026,47.54520000874072]},"properties":{"OBJECTID":161,"FEATURE_ID":10000011,"ESITE":"572055","CODE":66,"NAME":"Station 73","ABB_NAME":"73","ADDRESS":"1280 NE Park Dr","ZIPCODE":"98027","DISTRICT":"10","NEWSTA":"Y","RESOLUTION":"added manually\n","WEBSITE":"none","PIN":"3629760430","MAJOR":"362976","MINOR":"0430"}}
]}