{"type":"FeatureCollection", "features": [
{"type":"Feature","geometry":{"type":"Point","coordinates":[-122.32140147948469,47.61244039888191]},"properties":{"OBJECTID":1,"FEATURE_ID":2655,"ESITE":"442834","CODE":330,"NAME":"Polyclinic-Broadway","ABB_NAME":"Polyclinic-Broadway","ADDRESS":"1001 Broadway Ave","ZIPCODE":"98122","WEBSITE":"http://www.polyclinic.com/Locations/SiteInfo/LocationDetails/tabid/158/Default.aspx?CurrentClinicID=6","PIN":"1978201270","MAJOR":"197820","MINOR":"1270"}},
{"type":"Feature","geometry":{"type":"Point","coordinates":[-122.229281776757,47.36684721831654]},"properties":{"OBJECTID":2,"FEATURE_ID":2309,"ESITE":"675664","CODE":330,"NAME":"Alder Square Health Center","ABB_NAME":"Alder Square Health Center","ADDRESS":"1404 Central Ave S","ZIPCODE":"98032","WEBSITE":"","PIN":"","MAJOR":"","MINOR":""}},
{"type":"Feature","geometry":{"type":"Point","coordinates":[-122.31113068982337,47.607410751884856]},"properties":{"OBJECTID":3,"FEATURE_ID":1076,"ESITE":"435003","CODE":330,"NAME":"Providence Medical Center","ABB_NAME":"Providence MC","ADDRESS":"500 17th Ave","ZIPCODE":"98122","WEBSITE":"","PIN":"","MAJOR":"","MINOR":""}},
{"type":"Feature","geometry":{"type":"Point","coordinates":[-122.21488154944385,47.48160215318938]},"properties":{"OBJECTID":4,"FEATURE_ID":2704,"ESITE":"582936","CODE":330,"NAME":"HealthPoint Renton","ABB_NAME":"HealthPoint Renton","ADDRESS":"200 S 2nd St","ZIPCODE":"98057","WEBSITE":"","PIN":"","MAJOR":"","MINOR":""}},
{"type":"Feature","geometry":{"type":"Point","coordinates":[-122.21224245238137,47.44432450509623]},"properties":{"OBJECTID":5,"FEATURE_ID":2680,"ESITE":"608049","CODE":330,"NAME":"Valley Medical Clinic Family Medicine","ABB_NAME":"Valley Medical Clinic Family Medicine","ADDRESS":"3915 Talbot Rd S","ZIPCODE":"98055","WEBSITE":"","PIN":"","MAJOR":"","MINOR":""}},
{"type":"Feature","geometry":{"type":"Point","coordinates":[-122.35062030317285,47.49433438913866]},"properties":{"OBJECTID":6,"FEATURE_ID":1815,"ESITE":"571073","CODE":330,"NAME":"Schicks Shadel","ABB_NAME":"Schick's Shadel","ADDRESS":"12101 Ambaum Blvd SW","ZIPCODE":"98146","WEBSITE":"http://www.schickshadel.com/","PIN":"3744600205","MAJOR":"374460","MINOR":"0205"}},
{"type":"Feature","geometry":{"type":"Point","coordinates":[-122.31825525460579,47.65825157990733]},"properties":{"OBJECTID":7,"FEATURE_ID":2679,"ESITE":"14062","CODE":330,"NAME":"UW Medical Center Roosevelt","ABB_NAME":"UW Medical Center Roosevelt","ADDRESS":"4225 Roosevelt Way NE","ZIPCODE":"98105","WEBSITE":"","PIN":"","MAJOR":"","MINOR":""}},
{"type":"Feature","geometry":{"type":"Point","coordinates":[-122.1899882304892,47.61213464578814]},"properties":{"OBJECTID":8,"FEATURE_ID":2688,"ESITE":"107001","CODE":330,"NAME":"Virginia Mason Clinic-Bellevue","ABB_NAME":"Virginia Mason Clinic-Bellevue","ADDRESS":"222 112th Ave NE","ZIPCODE":"98004","WEBSITE":"","PIN":"","MAJOR":"","MINOR":""}},
{"type":"Feature","geometry":{"type":"Point","coordinates":[-122.29590095131728,47.4877643485797]},"properties":{"OBJECTID":9,"FEATURE_ID":1645,"ESITE":"735824","CODE":330,"NAME":"Highline Medical Center Speciality Campus","ABB_NAME":"Highline Medical Center Specialty Center","ADDRESS":"12844 Military Rd S","ZIPCODE":"98168","WEBSITE":"http://www.highlinemedicalcenter.org/about/index.php","PIN":"1623049001","MAJOR":"162304","MINOR":"9001"}},
{"type":"Feature","geometry":{"type":"Point","coordinates":[-122.34221148823138,47.70482857697873]},"properties":{"OBJECTID":10,"FEATURE_ID":1505,"ESITE":"260184","CODE":330,"NAME":"Blood Bank-Northend","ABB_NAME":"Blood Bank - Northend","ADDRESS":"10357 Stone Ave N","ZIPCODE":"98133","WEBSITE":"http://www.psbc.org/programs/cntr_seattle_north.htm","PIN":"6300500180","MAJOR":"630050","MINOR":"0180"}},
{"type":"Feature","geometry":{"type":"Point","coordinates":[-122.1607699250632,47.57900372243373]},"properties":{"OBJECTID":11,"FEATURE_ID":1617,"ESITE":"101588","CODE":330,"NAME":"Kaiser Permanente - Factoria","ABB_NAME":"Kaiser Permanente - Factoria","ADDRESS":"13451 SE 36th St","ZIPCODE":"98006","WEBSITE":"https://member.ghc.org/public/locations/medcenters/64/index.jhtml","PIN":"3927250010","MAJOR":"392725","MINOR":"0010"}},
{"type":"Feature","geometry":{"type":"Point","coordinates":[-122.21425098678814,47.442718961355204]},"properties":{"OBJECTID":12,"FEATURE_ID":693,"ESITE":"597748","CODE":330,"NAME":"UW Medicine Valley Medical Center","ABB_NAME":"Valley Medical Center","ADDRESS":"400 SW 43rd St","ZIPCODE":"98055","WEBSITE":"http://www.valleymed.org/","PIN":"8857670010","MAJOR":"885767","MINOR":"0010"}},
{"type":"Feature","geometry":{"type":"Point","coordinates":[-122.20184918498018,47.368523654860624]},"properties":{"OBJECTID":13,"FEATURE_ID":2648,"ESITE":"669345","CODE":330,"NAME":"Kaiser Permanente - Kent","ABB_NAME":"Kaiser Permanente - Kent","ADDRESS":"26004 104th Ave SE","ZIPCODE":"98030","WEBSITE":"","PIN":"2922059053","MAJOR":"292205","MINOR":"9053"}},
{"type":"Feature","geometry":{"type":"Point","coordinates":[-122.18502452686226,47.62580258967248]},"properties":{"OBJECTID":14,"FEATURE_ID":2678,"ESITE":"119204","CODE":330,"NAME":"UW Eastide Speciality","ABB_NAME":"UW Eastide Speciality","ADDRESS":"1700 116th Ave NE","ZIPCODE":"98004","WEBSITE":"","PIN":"","MAJOR":"","MINOR":""}},
{"type":"Feature","geometry":{"type":"Point","coordinates":[-122.28244435039865,47.434696350212576]},"properties":{"OBJECTID":15,"FEATURE_ID":2705,"ESITE":"1002788","CODE":330,"NAME":"HealthPoint SeaTac","ABB_NAME":"HealthPoint SeaTac","ADDRESS":"4040 S 188th St","ZIPCODE":"98188","WEBSITE":"","PIN":"","MAJOR":"","MINOR":""}},
{"type":"Feature","geometry":{"type":"Point","coordinates":[-122.38018913764347,47.66817144807996]},"properties":{"OBJECTID":16,"FEATURE_ID":2654,"ESITE":"320400","CODE":330,"NAME":"Polyclinic-Ballard","ABB_NAME":"Polyclinic-Ballard","ADDRESS":"1801 NW Market St","ZIPCODE":"98107","WEBSITE":"","PIN":"","MAJOR":"","MINOR":""}},
{"type":"Feature","geometry":{"type":"Point","coordinates":[-122.38522078822164,47.668836123361196]},"properties":{"OBJECTID":17,"FEATURE_ID":2661,"ESITE":"772145","CODE":330,"NAME":"Swedish Clinic Ballard","ABB_NAME":"Swedish Clinic Ballard","ADDRESS":"2208 NW Market St","ZIPCODE":"98107","WEBSITE":"","PIN":"","MAJOR":"","MINOR":""}},
{"type":"Feature","geometry":{"type":"Point","coordinates":[-122.15709226822945,47.48968915205595]},"properties":{"OBJECTID":18,"FEATURE_ID":2684,"ESITE":"898887","CODE":330,"NAME":"Valley Medical Highlands Primary Care","ABB_NAME":"Valley Medical Highlands Primary Care","ADDRESS":"451 Duvall Ave NE","ZIPCODE":"98059","WEBSITE":"","PIN":"","MAJOR":"","MINOR":""}},
{"type":"Feature","geometry":{"type":"Point","coordinates":[-122.20142878560569,47.37864783427787]},"properties":{"OBJECTID":19,"FEATURE_ID":2685,"ESITE":"659790","CODE":330,"NAME":"Valley Medical Kent Primary Care","ABB_NAME":"Valley Medical Kent Primary Care","ADDRESS":"24920 104th Ave SE","ZIPCODE":"98030","WEBSITE":"","PIN":"","MAJOR":"","MINOR":""}},
{"type":"Feature","geometry":{"type":"Point","coordinates":[-122.18005825610881,47.71714601575742]},"properties":{"OBJECTID":20,"FEATURE_ID":2690,"ESITE":"38444","CODE":330,"NAME":"Virginia Mason Clinic-Kirkland","ABB_NAME":"Virginia Mason Clinic-Kirkland","ADDRESS":"13014 120th Ave NE","ZIPCODE":"98034","WEBSITE":"","PIN":"","MAJOR":"","MINOR":""}},
{"type":"Feature","geometry":{"type":"Point","coordinates":[-122.22934806770984,47.3819106219157]},"properties":{"OBJECTID":21,"FEATURE_ID":2703,"ESITE":"616260","CODE":330,"NAME":"HealthPoint Kent","ABB_NAME":"HealthPoint Kent","ADDRESS":"403 E Meeker St","ZIPCODE":"98030","WEBSITE":"","PIN":"","MAJOR":"","MINOR":""}},
{"type":"Feature","geometry":{"type":"Point","coordinates":[-122.32031332981327,47.608249070899696]},"properties":{"OBJECTID":22,"FEATURE_ID":1735,"ESITE":"451165","CODE":330,"NAME":"Northwest Kidney Center","ABB_NAME":"Northwest Kidney Center","ADDRESS":"700 Broadway","ZIPCODE":"98122","WEBSITE":"http://www.nwkidney.org/index.html","PIN":"1978201435","MAJOR":"197820","MINOR":"1435"}},
{"type":"Feature","geometry":{"type":"Point","coordinates":[-122.1899882304892,47.61213464578814]},"properties":{"OBJECTID":23,"FEATURE_ID":2353,"ESITE":"107001","CODE":330,"NAME":"Virginia Mason-Bellevue","ABB_NAME":"Virginia Mason Bellevue","ADDRESS":"222 112th Ave NE","ZIPCODE":"98004","WEBSITE":"","PIN":"","MAJOR":"","MINOR":""}},
{"type":"Feature","geometry":{"type":"Point","coordinates":[-122.1526971664504,47.75542539817047]},"properties":{"OBJECTID":24,"FEATURE_ID":2677,"ESITE":"83325","CODE":330,"NAME":"UW Clinic Woodinville","ABB_NAME":"UW Clinic Woodinville","ADDRESS":"17638 140th Ave NE","ZIPCODE":"98072","WEBSITE":"","PIN":"","MAJOR":"","MINOR":""}},
{"type":"Feature","geometry":{"type":"Point","coordinates":[-122.24931460129957,47.4586819754242]},"properties":{"OBJECTID":25,"FEATURE_ID":1506,"ESITE":"609352","CODE":330,"NAME":"Blood Bank-Tukwila","ABB_NAME":"Blood Bank - Tukwila","ADDRESS":"130 Andover Park","ZIPCODE":"98188","WEBSITE":"http://www.psbc.org/programs/cntr_tukwila.htm","PIN":"0223100040","MAJOR":"022310","MINOR":"0040"}},
{"type":"Feature","geometry":{"type":"Point","coordinates":[-122.30803562168093,47.56362720819231]},"properties":{"OBJECTID":26,"FEATURE_ID":923,"ESITE":"766335","CODE":330,"NAME":"VA Puget Sound Health Care System - Seattle Division","ABB_NAME":"VA PS Health Care - Seattle Division","ADDRESS":"1660 S Columbian Way","ZIPCODE":"98108","WEBSITE":"http://www1.va.gov/directory/guide/facility.asp?ID=120&dnum=ALL&map=1","PIN":"1624049193","MAJOR":"162404","MINOR":"9193"}},
{"type":"Feature","geometry":{"type":"Point","coordinates":[-122.31969532959415,47.29111918223449]},"properties":{"OBJECTID":27,"FEATURE_ID":2380,"ESITE":"707843","CODE":330,"NAME":"Federal Way CBOC (Valor Healthcare)","ABB_NAME":"Federal Way CBOC (Valor Healthcare)","ADDRESS":"34617 11th Pl S","ZIPCODE":"98003","WEBSITE":"","PIN":"","MAJOR":"","MINOR":""}},
{"type":"Feature","geometry":{"type":"Point","coordinates":[-122.12927355565829,47.67332265141198]},"properties":{"OBJECTID":28,"FEATURE_ID":1624,"ESITE":"982335","CODE":330,"NAME":"Kaiser Permanente - Redmond at Riverpark","ABB_NAME":"Kaiser Permanente - Redmond at Riverpark","ADDRESS":"15809 Bear Creek Pkwy","ZIPCODE":"98052","WEBSITE":"http://www.ghc.org/locations/medcenters/9/index.jhtml","PIN":"0673100050","MAJOR":"067310","MINOR":"0050"}},
{"type":"Feature","geometry":{"type":"Point","coordinates":[-122.32537512906698,47.60853565495156]},"properties":{"OBJECTID":29,"FEATURE_ID":1520,"ESITE":"444607","CODE":330,"NAME":"Cabrini Medical Tower","ABB_NAME":"Cabrini Medical Tower","ADDRESS":"901 Boren Ave","ZIPCODE":"98104","WEBSITE":"http://www.lostinseattle.com/LIS/building/cabrinimedicaltower.html","PIN":"8590901010","MAJOR":"859090","MINOR":"1010"}},
{"type":"Feature","geometry":{"type":"Point","coordinates":[-122.32773783623448,47.6098603213719]},"properties":{"OBJECTID":30,"FEATURE_ID":821,"ESITE":"433317","CODE":330,"NAME":"Virginia Mason Seattle Main Clinic","ABB_NAME":"Virginia Mason Med Ctr","ADDRESS":"925 Seneca St","ZIPCODE":"98101","WEBSITE":"","PIN":"","MAJOR":"","MINOR":""}},
{"type":"Feature","geometry":{"type":"Point","coordinates":[-122.33084297437188,47.3004553244476]},"properties":{"OBJECTID":31,"FEATURE_ID":2175,"ESITE":"714727","CODE":330,"NAME":"Virginia Mason Clinic-Federal Way","ABB_NAME":"Virginia Mason Clinic - Federal Way","ADDRESS":"33501 1st Way S","ZIPCODE":"98003","WEBSITE":"","PIN":"","MAJOR":"","MINOR":""}},
{"type":"Feature","geometry":{"type":"Point","coordinates":[-122.02193365638234,47.53610375017806]},"properties":{"OBJECTID":32,"FEATURE_ID":2330,"ESITE":"991032","CODE":330,"NAME":"Swedish Medical Center Issaquah","ABB_NAME":"Swedish Medical Center Issaquah","ADDRESS":"751 NE Blakely Dr","ZIPCODE":"98029","WEBSITE":"http://www.swedish.org/locations/issaquah-campus","PIN":"3205700000","MAJOR":"320570","MINOR":"0000"}},
{"type":"Feature","geometry":{"type":"Point","coordinates":[-122.16750794439825,47.575780409322434]},"properties":{"OBJECTID":33,"FEATURE_ID":2664,"ESITE":"96899","CODE":330,"NAME":"Swedish Clinic Factoria","ABB_NAME":"Swedish Clinic Factoria","ADDRESS":"12917 SE 38th St","ZIPCODE":"98006","WEBSITE":"","PIN":"","MAJOR":"","MINOR":""}},
{"type":"Feature","geometry":{"type":"Point","coordinates":[-122.29956771645072,47.58409294692098]},"properties":{"OBJECTID":34,"FEATURE_ID":2079,"ESITE":"464705","CODE":330,"NAME":"Center Park Council","ABB_NAME":"Center Park Council","ADDRESS":"2121 26th Ave S","ZIPCODE":"98144","WEBSITE":"","PIN":"","MAJOR":"","MINOR":""}},
{"type":"Feature","geometry":{"type":"Point","coordinates":[-122.19262704791066,47.48662987168345]},"properties":{"OBJECTID":35,"FEATURE_ID":1625,"ESITE":"582523","CODE":330,"NAME":"Kaiser Permanente - Renton","ABB_NAME":"Kaiser Permanente - Renton","ADDRESS":"275 Bronson Way NE","ZIPCODE":"98056","WEBSITE":"http://www.ghc.org/locations/medcenters/7/index.jhtml","PIN":"1723059102","MAJOR":"172305","MINOR":"9102"}},
{"type":"Feature","geometry":{"type":"Point","coordinates":[-122.32273892657017,47.60970348717816]},"properties":{"OBJECTID":36,"FEATURE_ID":1489,"ESITE":"762460","CODE":330,"NAME":"Arnold Medical Center","ABB_NAME":"Arnold Medical Center","ADDRESS":"1221 Madison St","ZIPCODE":"98104","WEBSITE":"none","PIN":"8725990000","MAJOR":"872599","MINOR":"0000"}},
{"type":"Feature","geometry":{"type":"Point","coordinates":[-122.33466465897466,47.610544958792374]},"properties":{"OBJECTID":37,"FEATURE_ID":1621,"ESITE":"438355","CODE":330,"NAME":"Kaiser Permanente - Downtown Seattle","ABB_NAME":"Kaiser Permanente - Downtown Seattle","ADDRESS":"1420 5th Ave","ZIPCODE":"98101","WEBSITE":"","PIN":"1975700080","MAJOR":"197570","MINOR":"0080"}},
{"type":"Feature","geometry":{"type":"Point","coordinates":[-122.31203998230563,47.61990140575978]},"properties":{"OBJECTID":38,"FEATURE_ID":2647,"ESITE":"453243","CODE":330,"NAME":"Kaiser Permanente - Capitol Hill Campus","ABB_NAME":"Kaiser Permanente - Capitol Hill Campus","ADDRESS":"201 16th Ave E","ZIPCODE":"98112","WEBSITE":"","PIN":"3117000005","MAJOR":"311700","MINOR":"0005"}},
{"type":"Feature","geometry":{"type":"Point","coordinates":[-122.11657419535305,47.3584699293001]},"properties":{"OBJECTID":39,"FEATURE_ID":2682,"ESITE":"664049","CODE":330,"NAME":"Valley Medical Covington","ABB_NAME":"Valley Medical Covington","ADDRESS":"16850 SE 272nd St","ZIPCODE":"98042","WEBSITE":"","PIN":"","MAJOR":"","MINOR":""}},
{"type":"Feature","geometry":{"type":"Point","coordinates":[-122.03437950720132,47.53717019294903]},"properties":{"OBJECTID":40,"FEATURE_ID":2689,"ESITE":"572713","CODE":330,"NAME":"Virginia Mason Clinic-Issaquah","ABB_NAME":"Virginia Mason Clinic-Issaquah","ADDRESS":"100 NE Gilman Blvd","ZIPCODE":"98027","WEBSITE":"","PIN":"","MAJOR":"","MINOR":""}},
{"type":"Feature","geometry":{"type":"Point","coordinates":[-122.3279282994224,47.60953210906627]},"properties":{"OBJECTID":41,"FEATURE_ID":2692,"ESITE":"446849","CODE":330,"NAME":"Virginia Mason Hospital and Seattle Medical Center","ABB_NAME":"Virginia Mason Seattle Main Clinic","ADDRESS":"1100 9th Ave","ZIPCODE":"98101","WEBSITE":"https://www.virginiamason.org/home/body.cfm?xyzpdqabc=0&id=342&action=detail&ref=28","PIN":"1979200225","MAJOR":"197920","MINOR":"0225"}},
{"type":"Feature","geometry":{"type":"Point","coordinates":[-122.36623556142881,47.534194795647466]},"properties":{"OBJECTID":42,"FEATURE_ID":1122,"ESITE":"482452","CODE":330,"NAME":"Navos Mental Health Solutions","ABB_NAME":"Navos Mental Health","ADDRESS":"2600 SW Holden St","ZIPCODE":"98106","WEBSITE":"http://www.highlinementalhealth.org/index.php?option=com_akostaff&Itemid=72","PIN":"7985400265","MAJOR":"798540","MINOR":"0265"}},
{"type":"Feature","geometry":{"type":"Point","coordinates":[-122.33708724921735,47.71477019736725]},"properties":{"OBJECTID":43,"FEATURE_ID":1150,"ESITE":"274969","CODE":330,"NAME":"Northwest Hospital and Medical Center","ABB_NAME":"NW Hosp and Med Ctr","ADDRESS":"1550 N 115th St","ZIPCODE":"98133","WEBSITE":"http://www.nwhospital.org/","PIN":"3026049130","MAJOR":"302604","MINOR":"9130"}},
{"type":"Feature","geometry":{"type":"Point","coordinates":[-122.02193365638234,47.53610375017806]},"properties":{"OBJECTID":44,"FEATURE_ID":3300065,"ESITE":"991032","CODE":330,"NAME":"Swedish-Issaquah ER","ABB_NAME":"Swedish-Issaquah ER","ADDRESS":"751 NE Blakely Dr","ZIPCODE":"98029","WEBSITE":"http://www.swedish.org/locations/issaquah-emergency-room","PIN":"3205700000","MAJOR":"320570","MINOR":"0000"}},
{"type":"Feature","geometry":{"type":"Point","coordinates":[-122.32895091737349,47.60699715477168]},"properties":{"OBJECTID":45,"FEATURE_ID":2644,"ESITE":"000000","CODE":330,"NAME":"Polyclinic-Madison","ABB_NAME":"Polyclinic-Madison","ADDRESS":"904 7th Ave","ZIPCODE":"98104","WEBSITE":"","PIN":"","MAJOR":"","MINOR":""}},
{"type":"Feature","geometry":{"type":"Point","coordinates":[-122.22747953955304,47.30892120990375]},"properties":{"OBJECTID":46,"FEATURE_ID":2699,"ESITE":"719555","CODE":330,"NAME":"HealthPoint Auburn","ABB_NAME":"HealthPoint Auburn","ADDRESS":"126 Auburn Ave NE","ZIPCODE":"98002","WEBSITE":"","PIN":"1735800420","MAJOR":"173580","MINOR":"0420"}},
{"type":"Feature","geometry":{"type":"Point","coordinates":[-122.27965395101982,47.55422908624125]},"properties":{"OBJECTID":47,"FEATURE_ID":1623,"ESITE":"478724","CODE":330,"NAME":"Kaiser Permanente - Rainier","ABB_NAME":"Kaiser Permanente - Rainier","ADDRESS":"5316 Rainier Ave S","ZIPCODE":"98118","WEBSITE":"http://www.ghc.org/locations/medcenters/46/index.jhtml","PIN":"1704900338","MAJOR":"170490","MINOR":"0338"}},
{"type":"Feature","geometry":{"type":"Point","coordinates":[-122.04109937340701,47.550558808765444]},"properties":{"OBJECTID":48,"FEATURE_ID":2331,"ESITE":"847103","CODE":330,"NAME":"Overlake Medical Center Issaquah","ABB_NAME":"Overlake Medical Center Issaquah","ADDRESS":"5708 E Lake Sammamish Pkwy SE","ZIPCODE":"98029","WEBSITE":"","PIN":"","MAJOR":"","MINOR":""}},
{"type":"Feature","geometry":{"type":"Point","coordinates":[-122.3221785706257,47.596128377167915]},"properties":{"OBJECTID":49,"FEATURE_ID":1634,"ESITE":"1013565","CODE":330,"NAME":"International District Medical and Dental Clinic","ABB_NAME":"Int'l Dist Med and Dental Clinic","ADDRESS":"720 8th Ave S","ZIPCODE":"98104","WEBSITE":"","PIN":"8592900105","MAJOR":"859290","MINOR":"0105"}},
{"type":"Feature","geometry":{"type":"Point","coordinates":[-122.12339016630983,47.679409908643116]},"properties":{"OBJECTID":50,"FEATURE_ID":2700,"ESITE":"536743","CODE":330,"NAME":"HealthPoint Redmond","ABB_NAME":"HealthPoint Redmond","ADDRESS":"16225 NE 87th St","ZIPCODE":"98052","WEBSITE":"","PIN":"0225059099","MAJOR":"022505","MINOR":"9099"}},
{"type":"Feature","geometry":{"type":"Point","coordinates":[-122.30465356014942,47.60132932717676]},"properties":{"OBJECTID":51,"FEATURE_ID":1637,"ESITE":"433895","CODE":330,"NAME":"Carolyn Downs Family Medical Center","ABB_NAME":"Carolyn Downs Family Medical Center","ADDRESS":"2101 E Yesler Way","ZIPCODE":"98122","WEBSITE":"http://www.desc.org/","PIN":"1493600000","MAJOR":"149360","MINOR":"0000"}},
{"type":"Feature","geometry":{"type":"Point","coordinates":[-122.33008183195325,47.62803019004405]},"properties":{"OBJECTID":52,"FEATURE_ID":2123,"ESITE":"759903","CODE":330,"NAME":"Fred Hutchinson Cancer Research Center","ABB_NAME":"Fred Hutchinson Center","ADDRESS":"1100 Fairview Av N","ZIPCODE":"98109","WEBSITE":"","PIN":"1984200455","MAJOR":"198420","MINOR":"0455"}},
{"type":"Feature","geometry":{"type":"Point","coordinates":[-122.33165424876788,47.31416396339955]},"properties":{"OBJECTID":53,"FEATURE_ID":1618,"ESITE":"712275","CODE":330,"NAME":"Kaiser Permanente - Federal Way","ABB_NAME":"Kaiser Permanente - Federal Way","ADDRESS":"301 S. 320th St","ZIPCODE":"98003","WEBSITE":"http://www.ghc.org/locations/medcenters/10/index.jhtml","PIN":"1721049105","MAJOR":"172104","MINOR":"9105"}},
{"type":"Feature","geometry":{"type":"Point","coordinates":[-122.20058653697899,47.76094139712311]},"properties":{"OBJECTID":54,"FEATURE_ID":2702,"ESITE":"175585","CODE":330,"NAME":"HealthPoint Bothell","ABB_NAME":"HealthPoint Bothell","ADDRESS":"10414 Beardslee Blvd","ZIPCODE":"98011","WEBSITE":"","PIN":"3906100105","MAJOR":"390610","MINOR":"0105"}},
{"type":"Feature","geometry":{"type":"Point","coordinates":[-122.18435776277964,47.71607764435281]},"properties":{"OBJECTID":55,"FEATURE_ID":2652,"ESITE":"44178","CODE":330,"NAME":"Pacific Medical Totem Lake","ABB_NAME":"Pacific Medical Totem Lake","ADDRESS":"12910 Totem lake Blvd","ZIPCODE":"98034","WEBSITE":"","PIN":"","MAJOR":"","MINOR":""}},
{"type":"Feature","geometry":{"type":"Point","coordinates":[-122.39941319749225,47.640246909360584]},"properties":{"OBJECTID":56,"FEATURE_ID":2667,"ESITE":"414443","CODE":330,"NAME":"Swedish Clinic Magnolia","ABB_NAME":"Swedish Clinic Magnolia","ADDRESS":"2450 33rd Ave W","ZIPCODE":"98199","WEBSITE":"","PIN":"","MAJOR":"","MINOR":""}},
{"type":"Feature","geometry":{"type":"Point","coordinates":[-122.32378758106854,47.70086966630466]},"properties":{"OBJECTID":57,"FEATURE_ID":1622,"ESITE":"834234","CODE":330,"NAME":"Kaiser Permanente - Northgate","ABB_NAME":"Kaiser Permanente - Northgate","ADDRESS":"9800 4th Ave NE","ZIPCODE":"98115","WEBSITE":"http://www.ghc.org/locations/medcenters/6/index.jhtml","PIN":"2434900130","MAJOR":"243490","MINOR":"0130"}},
{"type":"Feature","geometry":{"type":"Point","coordinates":[-122.30955235219778,47.60801738193683]},"properties":{"OBJECTID":58,"FEATURE_ID":2656,"ESITE":"0000000","CODE":330,"NAME":"Polyclinic-Cardiology","ABB_NAME":"Polyclinic-Cardiology","ADDRESS":"550 17th Ave","ZIPCODE":"98122","WEBSITE":"","PIN":"","MAJOR":"","MINOR":""}},
{"type":"Feature","geometry":{"type":"Point","coordinates":[-122.31121422241941,47.60648715193113]},"properties":{"OBJECTID":59,"FEATURE_ID":2662,"ESITE":"448514","CODE":330,"NAME":"Swedish Clinic Central Seattle","ABB_NAME":"Swedish Clinic Central Seattle","ADDRESS":"1600 E Jefferson St","ZIPCODE":"98122","WEBSITE":"","PIN":"","MAJOR":"","MINOR":""}},
{"type":"Feature","geometry":{"type":"Point","coordinates":[-122.38642936767013,47.57295942548899]},"properties":{"OBJECTID":60,"FEATURE_ID":2670,"ESITE":"470933","CODE":330,"NAME":"Swedish West Seattle Primary Care","ABB_NAME":"Swedish West Seattle","ADDRESS":"3400 California Ave SW","ZIPCODE":"98116","WEBSITE":"","PIN":"","MAJOR":"","MINOR":""}},
{"type":"Feature","geometry":{"type":"Point","coordinates":[-122.34844467550147,47.6153352277815]},"properties":{"OBJECTID":61,"FEATURE_ID":2671,"ESITE":"832972","CODE":330,"NAME":"UW Clinic Belltown","ABB_NAME":"UW Clinic Belltown","ADDRESS":"2505 2nd Ave","ZIPCODE":"98121","WEBSITE":"","PIN":"","MAJOR":"","MINOR":""}},
{"type":"Feature","geometry":{"type":"Point","coordinates":[-122.32192760536763,47.6088420320288]},"properties":{"OBJECTID":62,"FEATURE_ID":819,"ESITE":"836480","CODE":330,"NAME":"Swedish Medical Center First Hill Campus","ABB_NAME":"Swedish Med Ctr First Hill","ADDRESS":"747 Broadway Ave","ZIPCODE":"98104","WEBSITE":"http://www.swedish.org/body.cfm?id=2031","PIN":"1978200665","MAJOR":"197820","MINOR":"0665"}},
{"type":"Feature","geometry":{"type":"Point","coordinates":[-121.98744557703111,47.20939700682391]},"properties":{"OBJECTID":63,"FEATURE_ID":2698,"ESITE":"394659","CODE":330,"NAME":"Enumclaw WIC Services","ABB_NAME":"Enumclaw WIC","ADDRESS":"2254 Jensen St","ZIPCODE":"98022","WEBSITE":"","PIN":"","MAJOR":"","MINOR":""}},
{"type":"Feature","geometry":{"type":"Point","coordinates":[-122.32967027875813,47.62667214711525]},"properties":{"OBJECTID":64,"FEATURE_ID":2202,"ESITE":"434812","CODE":330,"NAME":"Seattle Cancer Care Alliance","ABB_NAME":"Seattle Cancer Care Alliance","ADDRESS":"825 Eastlake Ave E","ZIPCODE":"98109","WEBSITE":"http://www.seattlecca.org/","PIN":"1361300055","MAJOR":"136130","MINOR":"0055"}},
{"type":"Feature","geometry":{"type":"Point","coordinates":[-122.30304905552528,47.31450151440241]},"properties":{"OBJECTID":65,"FEATURE_ID":2673,"ESITE":"868245","CODE":330,"NAME":"UW Clinic Federal Way","ABB_NAME":"UW Clinic Federal Way","ADDRESS":"32018 23rd Ave S","ZIPCODE":"98003","WEBSITE":"","PIN":"","MAJOR":"","MINOR":""}},
{"type":"Feature","geometry":{"type":"Point","coordinates":[-122.18069302195278,47.76859935145157]},"properties":{"OBJECTID":66,"FEATURE_ID":1615,"ESITE":"177415","CODE":330,"NAME":"Kaiser Permanente - Northshore","ABB_NAME":"Kaiser Permanente - Northshore","ADDRESS":"11913 NE 195th St","ZIPCODE":"98011","WEBSITE":"http://www.ghc.org/","PIN":"6979200210","MAJOR":"697920","MINOR":"0210"}},
{"type":"Feature","geometry":{"type":"Point","coordinates":[-122.31113068849365,47.6074107519021]},"properties":{"OBJECTID":67,"FEATURE_ID":3300022,"ESITE":"435003","CODE":330,"NAME":"Swedish Cherry Hill Campus","ABB_NAME":"Swedish Cherry Hill Campus","ADDRESS":"500 17th Ave","ZIPCODE":"98122","WEBSITE":"http://www.swedish.org/body.cfm?id=2030","PIN":"7942600331","MAJOR":"794260","MINOR":"0331"}},
{"type":"Feature","geometry":{"type":"Point","coordinates":[-122.37961188832553,47.667426651181266]},"properties":{"OBJECTID":68,"FEATURE_ID":3300043,"ESITE":"328287","CODE":330,"NAME":"Swedish Medical Center Ballard Campus","ABB_NAME":"Swedish Ballard Campus","ADDRESS":"5300 Tallman Ave NW","ZIPCODE":"98107","WEBSITE":"http://www.swedish.org/body.cfm?id=2052","PIN":"2767703875","MAJOR":"276770","MINOR":"3875"}},
{"type":"Feature","geometry":{"type":"Point","coordinates":[-122.32117669907709,47.70656086904501]},"properties":{"OBJECTID":69,"FEATURE_ID":3300047,"ESITE":"773391","CODE":330,"NAME":"Kindred Hospital Seattle - Northgate","ABB_NAME":"Kindred","ADDRESS":"10631 8th Ave NE","ZIPCODE":"98125","WEBSITE":"http://www.kindredhospitalseattle.com/BuildPage.asp?Pageid=3","PIN":"2926049409","MAJOR":"292604","MINOR":"9409"}},
{"type":"Feature","geometry":{"type":"Point","coordinates":[-122.3365587976624,47.61278659107126]},"properties":{"OBJECTID":70,"FEATURE_ID":2657,"ESITE":"839308","CODE":330,"NAME":"Polyclinic-Downtown","ABB_NAME":"Polyclinic-Downtown","ADDRESS":"509 Olive Way","ZIPCODE":"98101","WEBSITE":"","PIN":"","MAJOR":"","MINOR":""}},
{"type":"Feature","geometry":{"type":"Point","coordinates":[-122.3227023863955,47.70441808620997]},"properties":{"OBJECTID":71,"FEATURE_ID":1753,"ESITE":"254493","CODE":330,"NAME":"Pacific Medical Center-North","ABB_NAME":"Pacific MC- North","ADDRESS":"10416 5th Ave NE","ZIPCODE":"98125","WEBSITE":"http://www.pacificmedicalcenters.org/","PIN":"5101408393","MAJOR":"510140","MINOR":"8393"}},
{"type":"Feature","geometry":{"type":"Point","coordinates":[-122.20984948378424,47.44158422460158]},"properties":{"OBJECTID":72,"FEATURE_ID":1754,"ESITE":"592751","CODE":330,"NAME":"Pacific Medical Center Renton","ABB_NAME":"Pacific Medical Center Renton","ADDRESS":"601 SE Carr Rd","ZIPCODE":"98055","WEBSITE":"http://www.pacmed.org/locations.renton.html","PIN":"3123059006","MAJOR":"312305","MINOR":"9006"}},
{"type":"Feature","geometry":{"type":"Point","coordinates":[-122.28542044800373,47.66281739575019]},"properties":{"OBJECTID":73,"FEATURE_ID":2691,"ESITE":"840083","CODE":330,"NAME":"Virginia Mason Clinic-Sand Point","ABB_NAME":"Virginia Mason Clinic-Sand Point","ADDRESS":"4575 Sand Point Way NE","ZIPCODE":"98105","WEBSITE":"","PIN":"","MAJOR":"","MINOR":""}},
{"type":"Feature","geometry":{"type":"Point","coordinates":[-122.28148076640483,47.66239057806564]},"properties":{"OBJECTID":74,"FEATURE_ID":872,"ESITE":"349884","CODE":330,"NAME":"Seattlle Childrens Hospital","ABB_NAME":"Seattle Childrens Hospital","ADDRESS":"4800 Sand Point Way NE","ZIPCODE":"98105","WEBSITE":"http://www.seattlechildrens.org/","PIN":"2982800005","MAJOR":"298280","MINOR":"0005"}},
{"type":"Feature","geometry":{"type":"Point","coordinates":[-121.9877597583601,47.209180054893906]},"properties":{"OBJECTID":75,"FEATURE_ID":3300044,"ESITE":"983761","CODE":330,"NAME":"St. Elizabeth Hospital","ABB_NAME":"St. Elizabeth Hospital","ADDRESS":"1455 Battersby Ave","ZIPCODE":"98022","WEBSITE":"http://www.enumclawhospital.com/","PIN":"2420069029","MAJOR":"242006","MINOR":"9029"}},
{"type":"Feature","geometry":{"type":"Point","coordinates":[-122.30698090639326,47.62342400962018]},"properties":{"OBJECTID":76,"FEATURE_ID":1639,"ESITE":"894962","CODE":330,"NAME":"Country Doctor Community Clinic","ABB_NAME":"Country Doctor Community Clinic","ADDRESS":"500 19th Ave E","ZIPCODE":"98112","WEBSITE":"none","PIN":"4400200030","MAJOR":"440020","MINOR":"0030"}},
{"type":"Feature","geometry":{"type":"Point","coordinates":[-122.36623543553141,47.534195167088264]},"properties":{"OBJECTID":77,"FEATURE_ID":3300063,"ESITE":"482452","CODE":330,"NAME":"Highline West Seattle Mental Health Center","ABB_NAME":"Highline West Seattle Mental Health","ADDRESS":"2600 SW Holden St","ZIPCODE":"98126","WEBSITE":"http://www.highlinementalhealth.org/index.php","PIN":"2023049006","MAJOR":"202304","MINOR":"9006"}},
{"type":"Feature","geometry":{"type":"Point","coordinates":[-122.18666021809221,47.61872881790285]},"properties":{"OBJECTID":78,"FEATURE_ID":2646,"ESITE":"881737","CODE":330,"NAME":"Kaiser Permanente - Bellevue","ABB_NAME":"Kaiser Permanente - Bellevue","ADDRESS":"11511 NE 10th St","ZIPCODE":"98004","WEBSITE":"http://www.ghc.org/locations/medcenters/31/index.jhtml","PIN":"6448110150","MAJOR":"644811","MINOR":"0150"}},
{"type":"Feature","geometry":{"type":"Point","coordinates":[-122.33571016086674,47.47296094730795]},"properties":{"OBJECTID":79,"FEATURE_ID":1616,"ESITE":"574256","CODE":330,"NAME":"Kaiser Permanente - Burien","ABB_NAME":"Kaiser Permanente - Burien","ADDRESS":"140 SW 146th St","ZIPCODE":"98166","WEBSITE":"http://www.ghc.org/locations/medcenters/2/index.jhtml","PIN":"1923049302","MAJOR":"192304","MINOR":"9302"}},
{"type":"Feature","geometry":{"type":"Point","coordinates":[-122.03666040721228,47.583237591765155]},"properties":{"OBJECTID":80,"FEATURE_ID":2666,"ESITE":"532763","CODE":330,"NAME":"Swedish Pine Lake Primary Care","ABB_NAME":"Swedish Pine Lake Primary Care","ADDRESS":"22707 SE 29th St","ZIPCODE":"98075","WEBSITE":"","PIN":"6791040000","MAJOR":"679104","MINOR":"0000"}},
{"type":"Feature","geometry":{"type":"Point","coordinates":[-122.3075672436099,47.61609376111429]},"properties":{"OBJECTID":81,"FEATURE_ID":1626,"ESITE":"455639","CODE":330,"NAME":"Hearing Speech and Deafness Center","ABB_NAME":"Artz Communications Center","ADDRESS":"1625 19th Ave","ZIPCODE":"98122","WEBSITE":"","PIN":"","MAJOR":"","MINOR":""}},
{"type":"Feature","geometry":{"type":"Point","coordinates":[-122.34542890050486,47.500357286961844]},"properties":{"OBJECTID":82,"FEATURE_ID":10000040,"ESITE":"12265","CODE":330,"NAME":"HealthPoint Evergreen Campus","ABB_NAME":"HealthPoint Evergreen Campus","ADDRESS":"830 SW 116th St","ZIPCODE":"98146","WEBSITE":"","PIN":"0723049367","MAJOR":"072304","MINOR":"9367"}},
{"type":"Feature","geometry":{"type":"Point","coordinates":[-122.21877073753566,47.33099340587811]},"properties":{"OBJECTID":83,"FEATURE_ID":10000041,"ESITE":"687011","CODE":330,"NAME":"HealthPoint at Valley Cities Auburn","ABB_NAME":"HealthPoint at Valley Cities Auburn","ADDRESS":"2704 I St NE","ZIPCODE":"98002","WEBSITE":"","PIN":"0001000085","MAJOR":"000100","MINOR":"0085"}},
{"type":"Feature","geometry":{"type":"Point","coordinates":[-122.2223761555584,47.31709202900279]},"properties":{"OBJECTID":84,"FEATURE_ID":10000042,"ESITE":"707622","CODE":330,"NAME":"HealthPoint Auburn North","ABB_NAME":"HealthPoint Auburn North","ADDRESS":"923 Auburn Way N","ZIPCODE":"98002","WEBSITE":"","PIN":"0721059052","MAJOR":"072105","MINOR":"9052"}},
{"type":"Feature","geometry":{"type":"Point","coordinates":[-122.30624308267241,47.365128032013345]},"properties":{"OBJECTID":85,"FEATURE_ID":10000043,"ESITE":"381228","CODE":330,"NAME":"HealthPoint Midway","ABB_NAME":"HealthPoint Midway","ADDRESS":"26401 Pacific Hwy S","ZIPCODE":"98198","WEBSITE":"","PIN":"2822049191","MAJOR":"282204","MINOR":"9191"}},
{"type":"Feature","geometry":{"type":"Point","coordinates":[-122.29510867394718,47.48596130572295]},"properties":{"OBJECTID":86,"FEATURE_ID":10000044,"ESITE":"735784","CODE":330,"NAME":"HealthPoint Tukwila","ABB_NAME":"HealthPoint Tukwila","ADDRESS":"13030 Military Rd S","ZIPCODE":"98168","WEBSITE":"","PIN":"1623049171","MAJOR":"162304","MINOR":"9171"}},
{"type":"Feature","geometry":{"type":"Point","coordinates":[-122.27739357071013,47.435538689097505]},"properties":{"OBJECTID":87,"FEATURE_ID":10000045,"ESITE":"397165","CODE":330,"NAME":"HealthPoint Tyee Campus","ABB_NAME":"HealthPoint Tyee Campus","ADDRESS":"4424 S 188th St","ZIPCODE":"98188","WEBSITE":"","PIN":"3423049044","MAJOR":"342304","MINOR":"9044"}},
{"type":"Feature","geometry":{"type":"Point","coordinates":[-122.23575878093233,47.381052673663945]},"properties":{"OBJECTID":88,"FEATURE_ID":10000046,"ESITE":"1001073","CODE":330,"NAME":"HealthPoint at Valley Cities Kent","ABB_NAME":"HealthPoint at Valley Cities Kent","ADDRESS":"325 W Gowe St","ZIPCODE":"98032","WEBSITE":"","PIN":"9825700370","MAJOR":"982570","MINOR":"0370"}},
{"type":"Feature","geometry":{"type":"Point","coordinates":[-122.16660485552734,47.62121606464943]},"properties":{"OBJECTID":89,"FEATURE_ID":10000047,"ESITE":"112362","CODE":330,"NAME":"Bellevue CBOC (Valor Healthcare)","ABB_NAME":"Bellevue CBOC (Valor Healthcare)","ADDRESS":"13033 Bel-Red Rd","ZIPCODE":"98005","WEBSITE":"","PIN":"2825059121","MAJOR":"282505","MINOR":"9121"}},
{"type":"Feature","geometry":{"type":"Point","coordinates":[-122.17870811424403,47.71580893280882]},"properties":{"OBJECTID":90,"FEATURE_ID":502,"ESITE":"39289","CODE":330,"NAME":"EvergreenHealth Medical Center","ABB_NAME":"EvergreenHealth Medical Center","ADDRESS":"12040 NE 128th St","ZIPCODE":"98034","WEBSITE":"http://www.evergreenhealthcare.org/default.htm","PIN":"2826059144","MAJOR":"282605","MINOR":"9144"}},
{"type":"Feature","geometry":{"type":"Point","coordinates":[-121.88535977077116,47.51238657384665]},"properties":{"OBJECTID":91,"FEATURE_ID":2181,"ESITE":"194368","CODE":330,"NAME":"Snoqualmie Valley Hospital","ABB_NAME":"Snoqualmie Valley Hospital","ADDRESS":"9801 Frontier Ave SE","ZIPCODE":"98065","WEBSITE":"http://www.snoqualmiehospital.org/","PIN":"0623089021","MAJOR":"062308","MINOR":"9021"}},
{"type":"Feature","geometry":{"type":"Point","coordinates":[-122.34311400008836,47.45747390073147]},"properties":{"OBJECTID":92,"FEATURE_ID":1248,"ESITE":"611050","CODE":330,"NAME":"Highline Medical Center - Main Campus","ABB_NAME":"Highline Medical Center Main Campus","ADDRESS":"16251 Sylvester Rd  SW","ZIPCODE":"98166","WEBSITE":"http://www.highlinemedicalcenter.org/welcome/index.php","PIN":"3023049027","MAJOR":"302304","MINOR":"9027"}},
{"type":"Feature","geometry":{"type":"Point","coordinates":[-122.37961188832553,47.667426651181266]},"properties":{"OBJECTID":93,"FEATURE_ID":896,"ESITE":"328287","CODE":330,"NAME":"Ballard Community Hospital","ABB_NAME":"Ballard Community H","ADDRESS":"NW Market St & Barnes Ave NW","ZIPCODE":"98107","WEBSITE":"http://www.swedish.org/body.cfm?id=2052","PIN":"2767703875","MAJOR":"276770","MINOR":"3875"}},
{"type":"Feature","geometry":{"type":"Point","coordinates":[-122.18685496286487,47.620373426834185]},"properties":{"OBJECTID":94,"FEATURE_ID":147,"ESITE":"101690","CODE":330,"NAME":"Overlake Hospital Medical Center","ABB_NAME":"Overlake Medical Center","ADDRESS":"1035 116th Ave NE","ZIPCODE":"98104","WEBSITE":"http://www.overlakehospital.org/","PIN":"6448110060","MAJOR":"644811","MINOR":"0060"}},
{"type":"Feature","geometry":{"type":"Point","coordinates":[-122.31785931588728,47.30195482790542]},"properties":{"OBJECTID":95,"FEATURE_ID":2701,"ESITE":"705937","CODE":330,"NAME":"HealthPoint Federal Way","ABB_NAME":"HealthPoint Federal Way","ADDRESS":"33431 13th Pl S","ZIPCODE":"98003","WEBSITE":"","PIN":"","MAJOR":"","MINOR":""}},
{"type":"Feature","geometry":{"type":"Point","coordinates":[-122.32432312595746,47.609227065054206]},"properties":{"OBJECTID":96,"FEATURE_ID":2650,"ESITE":"437413","CODE":330,"NAME":"Pacific Medical First Hill","ABB_NAME":"Pacific Medical First Hill","ADDRESS":"1101 Madison St","ZIPCODE":"98104","WEBSITE":"","PIN":"","MAJOR":"","MINOR":""}},
{"type":"Feature","geometry":{"type":"Point","coordinates":[-122.32965709457989,47.61784032216313]},"properties":{"OBJECTID":97,"FEATURE_ID":2651,"ESITE":"440498","CODE":330,"NAME":"Pacific Medical Sleep Center","ABB_NAME":"Pacific Medical Sleep Center","ADDRESS":"1800 Yale Ave","ZIPCODE":"98101","WEBSITE":"","PIN":"","MAJOR":"","MINOR":""}},
{"type":"Feature","geometry":{"type":"Point","coordinates":[-122.33412426728735,47.70868405530472]},"properties":{"OBJECTID":98,"FEATURE_ID":2659,"ESITE":"0000000","CODE":330,"NAME":"Polyclinic-Northgate","ABB_NAME":"Polyclinic-Northgate","ADDRESS":"10111 Meridian Ave N","ZIPCODE":"98133","WEBSITE":"","PIN":"","MAJOR":"","MINOR":""}},
{"type":"Feature","geometry":{"type":"Point","coordinates":[-122.31752737812197,47.681128346181715]},"properties":{"OBJECTID":99,"FEATURE_ID":2665,"ESITE":"0000000","CODE":330,"NAME":"Swedish Clinic Green Lake","ABB_NAME":"Swedish Clinic Green Lake","ADDRESS":"7210 Roosevelt Ave NE","ZIPCODE":"98115","WEBSITE":"","PIN":"","MAJOR":"","MINOR":""}},
{"type":"Feature","geometry":{"type":"Point","coordinates":[-122.05374949299359,47.546631957306104]},"properties":{"OBJECTID":100,"FEATURE_ID":2674,"ESITE":"571237","CODE":330,"NAME":"UW Clinic Issaquah","ABB_NAME":"UW Clinic Issaquah","ADDRESS":"1455 11th Ave NW","ZIPCODE":"98027","WEBSITE":"","PIN":"","MAJOR":"","MINOR":""}},
{"type":"Feature","geometry":{"type":"Point","coordinates":[-122.29637025108774,47.393656640686395]},"properties":{"OBJECTID":101,"FEATURE_ID":2675,"ESITE":"389617","CODE":330,"NAME":"UW Clinic Kent","ABB_NAME":"UW Clinic Kent","ADDRESS":"23213 Pacific Hwy S","ZIPCODE":"98032","WEBSITE":"","PIN":"","MAJOR":"","MINOR":""}},
{"type":"Feature","geometry":{"type":"Point","coordinates":[-122.21452900768358,47.44422979575864]},"properties":{"OBJECTID":102,"FEATURE_ID":2681,"ESITE":"600033","CODE":330,"NAME":"Valley Medical Cascade Primary Care","ABB_NAME":"Valley Medical Cascade Primary Care","ADDRESS":"4033 Talbot Rd S","ZIPCODE":"98055","WEBSITE":"","PIN":"","MAJOR":"","MINOR":""}},
{"type":"Feature","geometry":{"type":"Point","coordinates":[-122.16809665913493,47.53806563622926]},"properties":{"OBJECTID":103,"FEATURE_ID":2687,"ESITE":"11216","CODE":330,"NAME":"Valley Medical Newcastle Primary Care","ABB_NAME":"Valley Medical Newcastle Primary Care","ADDRESS":"7203 129th Ave SE","ZIPCODE":"98056","WEBSITE":"","PIN":"","MAJOR":"","MINOR":""}},
{"type":"Feature","geometry":{"type":"Point","coordinates":[-122.33084297437188,47.3004553244476]},"properties":{"OBJECTID":104,"FEATURE_ID":2649,"ESITE":"714727","CODE":330,"NAME":"Pacific Medical Federal Way","ABB_NAME":"Pacific Medical Federal Way","ADDRESS":"33501 1st Way S","ZIPCODE":"98003","WEBSITE":"","PIN":"","MAJOR":"","MINOR":""}},
{"type":"Feature","geometry":{"type":"Point","coordinates":[-122.31598703809308,47.59280111770589]},"properties":{"OBJECTID":105,"FEATURE_ID":1752,"ESITE":"440009","CODE":330,"NAME":"Pacific Medical Center-Central","ABB_NAME":"Pacific MC- Central","ADDRESS":"1200 12th Ave S","ZIPCODE":"98144","WEBSITE":"http://www.pacmed.org/locations.beaconhill.html","PIN":"2829600110","MAJOR":"282960","MINOR":"0110"}},
{"type":"Feature","geometry":{"type":"Point","coordinates":[-122.29257760262854,47.66173216466475]},"properties":{"OBJECTID":106,"FEATURE_ID":2660,"ESITE":"348484","CODE":330,"NAME":"Polyclinic-Sand Point","ABB_NAME":"Polyclinic-Sand Point","ADDRESS":"3216 NE 45th Pl","ZIPCODE":"98105","WEBSITE":"","PIN":"","MAJOR":"","MINOR":""}},
{"type":"Feature","geometry":{"type":"Point","coordinates":[-122.31194650974105,47.61545742020668]},"properties":{"OBJECTID":107,"FEATURE_ID":1826,"ESITE":"440616","CODE":330,"NAME":"Seattle Eye Clinic","ABB_NAME":"Seattle Eye Clinic","ADDRESS":"1601 16th Ave","ZIPCODE":"98122","WEBSITE":"none","PIN":"7234600310","MAJOR":"723460","MINOR":"0310"}},
{"type":"Feature","geometry":{"type":"Point","coordinates":[-122.32366124155416,47.603920649070204]},"properties":{"OBJECTID":108,"FEATURE_ID":860,"ESITE":"438405","CODE":330,"NAME":"Harborview Medical Center","ABB_NAME":"Harborview Med Ctr","ADDRESS":"325 9th Ave","ZIPCODE":"98104","WEBSITE":"http://www.uwmedicine.org/Facilities/Harborview/","PIN":"8590400545","MAJOR":"859040","MINOR":"0545"}},
{"type":"Feature","geometry":{"type":"Point","coordinates":[-122.03666213744933,47.583235197753936]},"properties":{"OBJECTID":109,"FEATURE_ID":2668,"ESITE":"532763","CODE":330,"NAME":"Swedish Clinic Pine Lake","ABB_NAME":"Swedish Clinic Pine Lake","ADDRESS":"22707 SE 29th St","ZIPCODE":"98075","WEBSITE":"","PIN":"","MAJOR":"","MINOR":""}},
{"type":"Feature","geometry":{"type":"Point","coordinates":[-122.14923139520239,47.44439921076697]},"properties":{"OBJECTID":110,"FEATURE_ID":2683,"ESITE":"606570","CODE":330,"NAME":"Valley Medical Fairwood Primary Care","ABB_NAME":"Valley Medical Fairwood Primary Care","ADDRESS":"14410 SE Petrovisky Rd","ZIPCODE":"98058","WEBSITE":"","PIN":"","MAJOR":"","MINOR":""}},
{"type":"Feature","geometry":{"type":"Point","coordinates":[-122.29257760260329,47.66173216376547]},"properties":{"OBJECTID":111,"FEATURE_ID":1684,"ESITE":"348484","CODE":330,"NAME":"Lakeview Medical Dental Center","ABB_NAME":"Lakeview Medical Dental Center","ADDRESS":"3216 NE 45th Pl","ZIPCODE":"98105","WEBSITE":"http://www.wcrcseattle.com/","PIN":"2436201055","MAJOR":"243620","MINOR":"1055"}},
{"type":"Feature","geometry":{"type":"Point","coordinates":[-122.32185764242867,47.61012187486139]},"properties":{"OBJECTID":112,"FEATURE_ID":1731,"ESITE":"437345","CODE":330,"NAME":"Nordstrom Medical Tower","ABB_NAME":"Nordstrom Medical Tower","ADDRESS":"1229 Madison St","ZIPCODE":"98104","WEBSITE":"http://www.emporis.com/en/wm/bu/?id=nordstrommedicaltower-seattle-wa-usa","PIN":"1978201015","MAJOR":"197820","MINOR":"1015"}},
{"type":"Feature","geometry":{"type":"Point","coordinates":[-122.31019022170518,47.57770302019498]},"properties":{"OBJECTID":113,"FEATURE_ID":2658,"ESITE":"456953","CODE":330,"NAME":"Polyclinic-Jefferson park","ABB_NAME":"Polyclinic-Jefferson park","ADDRESS":"2902 Beacon Ave S","ZIPCODE":"98144","WEBSITE":"","PIN":"","MAJOR":"","MINOR":""}},
{"type":"Feature","geometry":{"type":"Point","coordinates":[-122.32624980021114,47.60887340383367]},"properties":{"OBJECTID":114,"FEATURE_ID":1504,"ESITE":"0000000","CODE":330,"NAME":"Blood Bank-First Hill","ABB_NAME":"Blood Bank - First Hill","ADDRESS":"Terry Ave & Madison St","ZIPCODE":"98104","WEBSITE":"","PIN":"","MAJOR":"","MINOR":""}},
{"type":"Feature","geometry":{"type":"Point","coordinates":[-122.32636613985507,47.608451403999055]},"properties":{"OBJECTID":115,"FEATURE_ID":3300016,"ESITE":"446015","CODE":330,"NAME":"Puget Sound Blood Center","ABB_NAME":"Blood Bank - First Hill","ADDRESS":"921 Terry Ave","ZIPCODE":"98104","WEBSITE":"http://www.psbc.org/home/index.htm","PIN":"1979200290","MAJOR":"197920","MINOR":"0290"}},
{"type":"Feature","geometry":{"type":"Point","coordinates":[-122.34252697845993,47.77771617104044]},"properties":{"OBJECTID":116,"FEATURE_ID":2676,"ESITE":"135646","CODE":330,"NAME":"UW Clinic Shoreline","ABB_NAME":"UW Clinic Shoreline","ADDRESS":"1355 N 205th St","ZIPCODE":"98133","WEBSITE":"","PIN":"","MAJOR":"","MINOR":""}},
{"type":"Feature","geometry":{"type":"Point","coordinates":[-122.32806983956328,47.60795789190277]},"properties":{"OBJECTID":117,"FEATURE_ID":2653,"ESITE":"925162","CODE":330,"NAME":"Pacific Medical Womens Clinic","ABB_NAME":"Pacific Medical Womens Clinic","ADDRESS":"805 Madison St","ZIPCODE":"98104","WEBSITE":"","PIN":"","MAJOR":"","MINOR":""}},
{"type":"Feature","geometry":{"type":"Point","coordinates":[-122.16403447111867,47.578880080612656]},"properties":{"OBJECTID":118,"FEATURE_ID":2672,"ESITE":"113634","CODE":330,"NAME":"UW Clinic Factoria","ABB_NAME":"UW Clinic Factoria","ADDRESS":"13231 SE 36th St","ZIPCODE":"98006","WEBSITE":"","PIN":"","MAJOR":"","MINOR":""}},
{"type":"Feature","geometry":{"type":"Point","coordinates":[-122.19137885345211,47.61974513185354]},"properties":{"OBJECTID":119,"FEATURE_ID":1503,"ESITE":"106214","CODE":330,"NAME":"Blood Bank-Bellevue","ABB_NAME":"Blood Bank - Bellevue","ADDRESS":"1021 112th Ave NE","ZIPCODE":"98004","WEBSITE":"http://www.psbc.org/programs/cntr_bellevue.htm","PIN":"5291200005","MAJOR":"529120","MINOR":"0005"}},
{"type":"Feature","geometry":{"type":"Point","coordinates":[-122.35733582532077,47.63879960833899]},"properties":{"OBJECTID":120,"FEATURE_ID":2669,"ESITE":"416529","CODE":330,"NAME":"Swedish Clinic Queen Anne","ABB_NAME":"Swedish Clinic Queen Anne","ADDRESS":"2211 Queen Anne Ave N","ZIPCODE":"98109","WEBSITE":"","PIN":"","MAJOR":"","MINOR":""}},
{"type":"Feature","geometry":{"type":"Point","coordinates":[-122.32728213992422,47.29261026157906]},"properties":{"OBJECTID":121,"FEATURE_ID":103,"ESITE":"711911","CODE":330,"NAME":"St Francis Hospital","ABB_NAME":"St. Francis  Hospital","ADDRESS":"34515 9th Ave S","ZIPCODE":"98003","WEBSITE":"https://www.fhshealth.org/location/sfh.asp","PIN":"7504510020","MAJOR":"750451","MINOR":"0020"}},
{"type":"Feature","geometry":{"type":"Point","coordinates":[-122.22926910249932,47.30852874525195]},"properties":{"OBJECTID":122,"FEATURE_ID":22,"ESITE":"717584","CODE":330,"NAME":"MultiCare Auburn Medical Center","ABB_NAME":"MultiCare Auburn Medical Center","ADDRESS":"202 N Division St","ZIPCODE":"98002","WEBSITE":"https://www.armcuhs.com/p1.html","PIN":"0492500240","MAJOR":"049250","MINOR":"0240"}},
{"type":"Feature","geometry":{"type":"Point","coordinates":[-122.2044154572006,47.71945409605988]},"properties":{"OBJECTID":123,"FEATURE_ID":1585,"ESITE":"168945","CODE":330,"NAME":"Fairfax Hospital","ABB_NAME":"Fairfax Hospital","ADDRESS":"10200 NE 132nd St","ZIPCODE":"98034","WEBSITE":"http://www.athealth.com/Consumer/tcenter/fairfax_hospital.html","PIN":"2026059018","MAJOR":"202605","MINOR":"9018"}},
{"type":"Feature","geometry":{"type":"Point","coordinates":[-122.0554425332748,47.35743624217505]},"properties":{"OBJECTID":124,"FEATURE_ID":2686,"ESITE":"975421","CODE":330,"NAME":"Valley Medical Lake Sawyer Primary Care","ABB_NAME":"Valley Medical Lake Sawyer Primary Care","ADDRESS":"27203 216th Ave SE","ZIPCODE":"98038","WEBSITE":"","PIN":"","MAJOR":"","MINOR":""}},
{"type":"Feature","geometry":{"type":"Point","coordinates":[-122.32081510475015,47.61221103389206]},"properties":{"OBJECTID":125,"FEATURE_ID":1795,"ESITE":"0000000","CODE":330,"NAME":"Polyclinic-First Hill","ABB_NAME":"Polyclinic - First Hill","ADDRESS":"1145 Broadway Ave","ZIPCODE":"98122","WEBSITE":"","PIN":"","MAJOR":"","MINOR":""}},
{"type":"Feature","geometry":{"type":"Point","coordinates":[-122.30710463539017,47.64968138764886]},"properties":{"OBJECTID":126,"FEATURE_ID":1345,"ESITE":"14020","CODE":330,"NAME":"UW Medical Center","ABB_NAME":"UW Medical Center","ADDRESS":"1959 NE Pacific St","ZIPCODE":"98195","WEBSITE":"http://www.uwmedicine.org/Facilities/UWMedicalCenter/","PIN":"1625049001","MAJOR":"162504","MINOR":"9001"}},
{"type":"Feature","geometry":{"type":"Point","coordinates":[-122.3338793391449,47.60614720017527]},"properties":{"OBJECTID":127,"FEATURE_ID":2663,"ESITE":"443955","CODE":330,"NAME":"Swedish Clinic Downtown Seattle","ABB_NAME":"Swedish Downtown","ADDRESS":"1001 4th Ave","ZIPCODE":"98154","WEBSITE":"","PIN":"","MAJOR":"","MINOR":""}}
]}